[{"city": "Musselburgh", "review_count": 4, "name": "Tesco Stores", "neighborhoods": [], "type": "business", "business_id": "5HVmBD0vznPVi2DlvF_ejQ", "full_address": "Mall Avenue\nMusselburgh EH21 7BL", "hours": {}, "state": "ELN", "longitude": -3.0562661, "stars": 2.5, "latitude": 55.9408343, "attributes": {"Accepts Credit Cards": true, "Price Range": 2, "Parking": {"garage": false, "street": false, "validated": false, "lot": true, "valet": false}}, "open": true, "categories": ["Food", "Beer, Wine & Spirits", "Grocery"]}, {"city": "Musselburgh", "review_count": 4, "name": "Elena DiRollo", "neighborhoods": [], "type": "business", "business_id": "LFf-IXdeb1nNil-BEQxQdA", "full_address": "34 Bridge Street\nMusselburgh EH21 6AG", "hours": {"Monday": {"close": "20:00", "open": "10:00"}, "Tuesday": {"close": "20:00", "open": "10:00"}, "Friday": {"close": "20:30", "open": "10:00"}, "Wednesday": {"close": "20:00", "open": "10:00"}, "Thursday": {"close": "20:00", "open": "10:00"}, "Sunday": {"close": "20:30", "open": "11:30"}, "Saturday": {"close": "20:30", "open": "10:00"}}, "state": "ELN", "longitude": -3.0581519, "stars": 4.5, "latitude": 55.943702, "attributes": {"Price Range": 2, "Accepts Credit Cards": true, "Wheelchair Accessible": true, "Wi-Fi": "free", "Parking": {"garage": false, "street": true, "lot": false, "valet": false}}, "open": true, "categories": ["Food", "Specialty Food", "Candy Stores", "Ice Cream & Frozen Yogurt"]}, {"city": "Musselburgh", "review_count": 4, "name": "Quayside", "neighborhoods": [], "type": "business", "business_id": "FBzPxHL9tJYGw0uckrv3vg", "full_address": "131 New Street\nMusselburgh EH21 6DH", "hours": {}, "state": "ELN", "longitude": -3.0697199, "stars": 3.5, "latitude": 55.9449413, "attributes": {}, "open": true, "categories": ["British", "Restaurants"]}, {"city": "Musselburgh", "review_count": 6, "name": "Lanna Thai", "neighborhoods": [], "type": "business", "business_id": "tdqZK2DXrmX5jyddy4uxmg", "full_address": "32 Bridge St\nMusselburgh EH21 6AG", "hours": {}, "state": "ELN", "longitude": -3.0580441, "stars": 4.0, "latitude": 55.9436788, "attributes": {"Take-out": true, "Alcohol": "full_bar", "Takes Reservations": true, "Parking": {"garage": false, "street": false, "lot": false, "valet": false}, "Attire": "casual", "Good for Kids": true, "Good For Groups": true, "Price Range": 2}, "open": true, "categories": ["Thai", "Restaurants"]}, {"city": "Musselburgh", "review_count": 6, "name": "The Cuddie Brae", "neighborhoods": [], "type": "business", "business_id": "V43ZSii2SQ8DPlag09Ty9A", "full_address": "91 Newcraighall Road\nMusselburgh EH21 8RX", "hours": {"Monday": {"close": "11:00", "open": "07:00"}, "Tuesday": {"close": "11:00", "open": "07:00"}, "Friday": {"close": "11:00", "open": "09:00"}, "Wednesday": {"close": "11:00", "open": "07:00"}, "Thursday": {"close": "11:00", "open": "07:00"}, "Sunday": {"close": "11:00", "open": "08:00"}, "Saturday": {"close": "11:00", "open": "08:00"}}, "state": "ELN", "longitude": -3.094542306476, "stars": 2.5, "latitude": 55.935110108385, "attributes": {"Alcohol": "full_bar", "Noise Level": "average", "Wheelchair Accessible": true, "Outdoor Seating": true, "Parking": {"garage": false, "street": false, "validated": false, "lot": true, "valet": false}, "Accepts Credit Cards": true, "Good For Groups": true, "Price Range": 3}, "open": true, "categories": ["Pubs", "Bars", "Nightlife"]}, {"city": "Musselburgh", "review_count": 5, "name": "The Birdcage Bar & Restaurant", "neighborhoods": [], "type": "business", "business_id": "-rs3Rufq-9jy8z3eWWNd-Q", "full_address": "Station Rd\nEskmills\nMusselburgh EH21 7PQ", "hours": {}, "state": "ELN", "longitude": -3.0603894, "stars": 3.5, "latitude": 55.9390685, "attributes": {"Take-out": false, "Price Range": 2, "Outdoor Seating": true, "Noise Level": "average", "Parking": {"garage": false, "street": false, "lot": true, "valet": false}, "Delivery": false, "Attire": "casual", "Has TV": false, "Good For": {"dessert": false, "latenight": false, "lunch": false, "dinner": false, "breakfast": false, "brunch": false}, "Takes Reservations": true, "Ambience": {"romantic": false, "intimate": false, "classy": false, "hipster": false, "touristy": false, "trendy": false, "upscale": false, "casual": false}, "Waiter Service": true, "Accepts Credit Cards": true, "Good for Kids": true, "Good For Groups": true, "Alcohol": "full_bar"}, "open": false, "categories": ["British", "Restaurants"]}, {"city": "Musselburgh", "review_count": 5, "name": "Staggs Bar", "neighborhoods": [], "type": "business", "business_id": "lb3DFVlpUR3w990XOPYpnw", "full_address": "81 N High Street\nMusselburgh EH21 6JE", "hours": {}, "state": "ELN", "longitude": -3.05838, "stars": 4.0, "latitude": 55.9442215, "attributes": {"Alcohol": "full_bar", "Good For Dancing": false, "Parking": {"garage": false, "street": true, "lot": false, "valet": false}, "Dogs Allowed": true, "Happy Hour": false, "Has TV": true, "Outdoor Seating": true, "Coat Check": false, "Smoking": "outdoor", "Accepts Credit Cards": false, "Wheelchair Accessible": true, "Good For Groups": true, "Price Range": 2}, "open": true, "categories": ["Pubs", "Bars", "Nightlife"]}, {"city": "Musselburgh", "review_count": 3, "name": "The Glasshouse At Eskmills", "neighborhoods": [], "type": "business", "business_id": "aAh-R33lk169LlgCZ7E9Yg", "full_address": "Stuart House Station Road\nMusselburgh EH21 7PQ", "hours": {}, "state": "ELN", "longitude": -3.0603894, "stars": 3.5, "latitude": 55.9390685, "attributes": {}, "open": false, "categories": ["British", "Restaurants"]}]