[{"city": "Edinburgh", "review_count": 17, "name": "Suruchi Resturant", "neighborhoods": ["Newington"], "type": "business", "business_id": "5dUDkaxm5FdQanoNkP86KQ", "full_address": "14a Nicolson Street\nNewington\nEdinburgh EH8 9DH", "hours": {"Monday": {"close": "21:30", "open": "12:00"}, "Tuesday": {"close": "21:30", "open": "12:00"}, "Friday": {"close": "21:30", "open": "12:00"}, "Wednesday": {"close": "21:30", "open": "12:00"}, "Thursday": {"close": "21:30", "open": "12:00"}, "Sunday": {"close": "21:30", "open": "12:00"}, "Saturday": {"close": "21:30", "open": "12:00"}}, "state": "MLN", "longitude": -3.1856285619134, "stars": 4.0, "latitude": 55.946825587593, "attributes": {"Take-out": true, "Price Range": 2, "Outdoor Seating": false, "Takes Reservations": true, "Good For Groups": true, "Delivery": true, "Good For": {"dessert": false, "latenight": false, "lunch": false, "dinner": true, "breakfast": false, "brunch": false}, "Parking": {"garage": false, "street": false, "validated": false, "lot": false, "valet": false}, "Attire": "casual", "Waiter Service": true, "Accepts Credit Cards": true, "Good for Kids": true, "Alcohol": "full_bar", "Wheelchair Accessible": false}, "open": true, "categories": ["Indian", "Restaurants"]}, {"city": "Edinburgh", "review_count": 9, "name": "The Leith Beer Co.", "neighborhoods": ["Leith"], "type": "business", "business_id": "XikYtr6sqjd8a1PpaLIfwg", "full_address": "58 Shore\nLeith\nEdinburgh EH6 6RA", "hours": {}, "state": "MLN", "longitude": -3.1703934, "stars": 3.5, "latitude": 55.9753939, "attributes": {"Take-out": false, "Price Range": 2, "Outdoor Seating": true, "Noise Level": "quiet", "Coat Check": false, "Smoking": "outdoor", "Attire": "casual", "Good For Groups": true, "Delivery": false, "Happy Hour": false, "Parking": {"garage": false, "street": false, "validated": false, "lot": false, "valet": false}, "Music": {"dj": false, "live": false, "video": false, "jukebox": true}, "Good For": {"dessert": false, "latenight": false, "lunch": false, "dinner": false, "breakfast": false, "brunch": false}, "Takes Reservations": true, "Ambience": {"romantic": false, "intimate": false, "classy": false, "hipster": false, "touristy": false, "trendy": false, "upscale": false, "casual": false}, "Has TV": true, "Waiter Service": false, "Accepts Credit Cards": true, "Good for Kids": true, "Alcohol": "full_bar", "Wheelchair Accessible": true}, "open": true, "categories": ["Pubs", "Bars", "Nightlife", "British", "Restaurants"]}, {"city": "Edinburgh", "review_count": 23, "name": "IKEA Edinburgh", "neighborhoods": [], "type": "business", "business_id": "kXBlsfAxq9ue2QpBhSNOjg", "full_address": "Straiton Road\nLoanhead\nMidlothian\nEdinburgh EH20 9PW", "hours": {"Monday": {"close": "21:00", "open": "10:00"}, "Tuesday": {"close": "21:00", "open": "10:00"}, "Friday": {"close": "21:00", "open": "10:00"}, "Wednesday": {"close": "21:00", "open": "10:00"}, "Thursday": {"close": "21:00", "open": "10:00"}, "Sunday": {"close": "19:00", "open": "10:00"}, "Saturday": {"close": "19:00", "open": "10:00"}}, "state": "MLN", "longitude": -3.1660591, "stars": 3.5, "latitude": 55.88496, "attributes": {"Price Range": 1, "Accepts Credit Cards": true, "Wheelchair Accessible": true, "Parking": {"garage": false, "street": false, "validated": false, "lot": true, "valet": false}}, "open": true, "categories": ["Shopping", "Home & Garden", "Furniture Stores"]}, {"city": "Roslin", "review_count": 8, "name": "Rosslyn Chapel Trust", "neighborhoods": [], "type": "business", "business_id": "b1-LKP-nRLJRMsqxT9O4uQ", "full_address": "Rosslyn Chapel\nRoslin EH25 9PU", "hours": {}, "state": "MLN", "longitude": -3.1598765, "stars": 4.5, "latitude": 55.8553757, "attributes": {}, "open": true, "categories": ["Religious Organizations"]}, {"city": "Dalkeith", "review_count": 5, "name": "The Sun Inn", "neighborhoods": [], "type": "business", "business_id": "sEZmkqy-lCym1snyr-b0Vg", "full_address": "Lothianbridge\nDalkeith EH22 4TR", "hours": {"Monday": {"close": "14:00", "open": "12:00"}, "Tuesday": {"close": "21:00", "open": "18:00"}, "Friday": {"close": "21:00", "open": "18:00"}, "Wednesday": {"close": "21:00", "open": "18:00"}, "Thursday": {"close": "21:00", "open": "18:00"}, "Sunday": {"close": "19:00", "open": "12:00"}, "Saturday": {"close": "21:00", "open": "18:00"}}, "state": "MLN", "longitude": -3.0790105, "stars": 5.0, "latitude": 55.8729732, "attributes": {"Accepts Credit Cards": true, "Wi-Fi": "free", "Price Range": 2}, "open": true, "categories": ["Hotels & Travel", "Event Planning & Services", "Hotels"]}, {"city": "Edinburgh", "review_count": 3, "name": "Browns Opticians", "neighborhoods": [], "type": "business", "business_id": "OSpBCZeISMK5wVsG4r5rPQ", "full_address": "44 Portobello Road\nEdinburgh EH8 7EL", "hours": {}, "state": "MLN", "longitude": -3.1447839, "stars": 4.5, "latitude": 55.9549591, "attributes": {}, "open": true, "categories": ["Shopping", "Eyewear & Opticians"]}, {"city": "Dalkeith", "review_count": 3, "name": "Tesco", "neighborhoods": [], "type": "business", "business_id": "u5-4E_ovVimvvhJgn3Yufg", "full_address": "Hardengreen\nBonnyrigg Road\nDalkeith EH22 3PP", "hours": {}, "state": "MLN", "longitude": -3.0848345, "stars": 4.0, "latitude": 55.8855768, "attributes": {"Accepts Credit Cards": true, "Price Range": 1, "Parking": {"garage": false, "street": false, "validated": false, "lot": false, "valet": false}}, "open": true, "categories": ["Food", "Beer, Wine & Spirits", "Grocery"]}, {"city": "Loanhead", "review_count": 4, "name": "Costco UK", "neighborhoods": [], "type": "business", "business_id": "UWPoSLYPJXgt3JFhwqxiYQ", "full_address": "Costkea Way at Pentland Rd\nLoanhead EH20 9BY", "hours": {}, "state": "MLN", "longitude": -3.1678554, "stars": 4.5, "latitude": 55.8788757, "attributes": {"Accepts Credit Cards": false, "Price Range": 3}, "open": true, "categories": ["Shopping", "Wholesale Stores"]}, {"city": "Lasswade", "review_count": 3, "name": "Melville Castle Hotel", "neighborhoods": [], "type": "business", "business_id": "njU0-pf0Zj4oi11BGdp_jQ", "full_address": "Melville Castle\nLasswade EH18 1AP", "hours": {}, "state": "MLN", "longitude": -3.091901, "stars": 2.5, "latitude": 55.8944643, "attributes": {"Accepts Credit Cards": true, "Wi-Fi": "no", "Price Range": 3}, "open": true, "categories": ["Hotels & Travel", "Event Planning & Services", "Hotels"]}, {"city": "Loanhead", "review_count": 3, "name": "Pets at Home", "neighborhoods": [], "type": "business", "business_id": "TWQ9MTbSDeb3gKA1WUnTpw", "full_address": "Unit B Straiton Mains\nStraiton\nLoanhead EH20 9PW", "hours": {"Monday": {"close": "20:00", "open": "09:00"}, "Tuesday": {"close": "20:00", "open": "09:00"}, "Friday": {"close": "20:00", "open": "09:00"}, "Wednesday": {"close": "20:00", "open": "09:00"}, "Thursday": {"close": "20:00", "open": "09:00"}, "Sunday": {"close": "18:00", "open": "11:00"}, "Saturday": {"close": "18:00", "open": "09:00"}}, "state": "MLN", "longitude": -3.1628629, "stars": 3.5, "latitude": 55.8846313, "attributes": {}, "open": true, "categories": ["Pets", "Pet Stores"]}, {"city": "Lasswade", "review_count": 4, "name": "Laird & Dog Hotel", "neighborhoods": [], "type": "business", "business_id": "8IyIf_v6azdjsTe6WzKd4w", "full_address": "5 High Street\nLasswade EH18 1NA", "hours": {"Monday": {"close": "22:00", "open": "07:00"}, "Tuesday": {"close": "22:00", "open": "07:00"}, "Friday": {"close": "22:00", "open": "07:00"}, "Wednesday": {"close": "22:00", "open": "07:00"}, "Thursday": {"close": "22:00", "open": "07:00"}, "Sunday": {"close": "13:00", "open": "07:00"}, "Saturday": {"close": "13:00", "open": "07:00"}}, "state": "MLN", "longitude": -3.1153506467849, "stars": 3.5, "latitude": 55.883540315246, "attributes": {"Accepts Credit Cards": true, "Alcohol": "full_bar", "Good For Dancing": false, "Noise Level": "average", "Coat Check": false, "Ambience": {"romantic": false, "intimate": false, "classy": false, "hipster": false, "divey": false, "touristy": false, "trendy": false, "upscale": false, "casual": false}, "Waiter Service": true, "Parking": {"garage": false, "street": false, "validated": false, "lot": false, "valet": false}, "Music": {"dj": false, "background_music": true, "jukebox": false, "live": false, "video": false, "karaoke": false}, "Good For": {"dessert": false, "latenight": false, "lunch": false, "dinner": false, "brunch": false, "breakfast": false}, "Takes Reservations": true, "Attire": "casual", "Smoking": "outdoor", "Wi-Fi": "free", "Good for Kids": true, "Good For Groups": true, "Price Range": 2}, "open": true, "categories": ["Bars", "Pubs", "Event Planning & Services", "Nightlife", "Hotels & Travel", "Hotels", "Restaurants"]}, {"city": "Edinburgh", "review_count": 5, "name": "Currys", "neighborhoods": [], "type": "business", "business_id": "MkdPTHBBCjLKlidvceynGQ", "full_address": "1 Hermiston Gate\n41 Cultins Road\nEdinburgh EH11 4DG", "hours": {}, "state": "MLN", "longitude": -3.3067818, "stars": 2.5, "latitude": 55.9271546, "attributes": {"Price Range": 2}, "open": true, "categories": ["Shopping", "Home & Garden", "Appliances"]}, {"city": "Edinburgh", "review_count": 4, "name": "Cornerstone Book Shop", "neighborhoods": ["Old Town"], "type": "business", "business_id": "iA1v3Dky78A8KX1TuLeUlw", "full_address": "St John's\nPrinces St\nOld Town\nEdinburgh EH2 4BJ", "hours": {"Monday": {"close": "17:00", "open": "10:00"}, "Tuesday": {"close": "17:00", "open": "10:00"}, "Friday": {"close": "17:00", "open": "10:00"}, "Wednesday": {"close": "17:00", "open": "10:00"}, "Thursday": {"close": "17:00", "open": "10:00"}, "Saturday": {"close": "17:00", "open": "10:00"}}, "state": "MLN", "longitude": -3.2067827, "stars": 3.5, "latitude": 55.9499767, "attributes": {"Accepts Credit Cards": true, "Price Range": 2, "Wheelchair Accessible": false}, "open": true, "categories": ["Shopping", "Books, Mags, Music & Video", "Bookstores", "Churches", "Religious Organizations", "Local Flavor"]}, {"city": "Penicuik", "review_count": 5, "name": "Flotterstone Inn", "neighborhoods": [], "type": "business", "business_id": "_ZEt6rod-HGNWhFkX0qmJw", "full_address": "Penicuik EH26 0PP", "hours": {}, "state": "MLN", "longitude": -3.2601715, "stars": 4.0, "latitude": 55.8612812, "attributes": {"Alcohol": "full_bar", "Noise Level": "average", "Parking": {"garage": false, "street": false, "lot": false, "valet": false}, "Has TV": true, "Coat Check": true, "Good For Groups": true}, "open": true, "categories": ["Pubs", "Bars", "Nightlife"]}, {"city": "Edinburgh", "review_count": 5, "name": "Silicon Edinburgh", "neighborhoods": ["Haymarket"], "type": "business", "business_id": "QL4OdqvQ6iGG9XmcifwyhA", "full_address": "159 Dalry Road\nHaymarket\nEdinburgh EH11 2EB", "hours": {"Monday": {"close": "18:00", "open": "10:00"}, "Tuesday": {"close": "18:00", "open": "10:00"}, "Friday": {"close": "18:00", "open": "10:00"}, "Wednesday": {"close": "18:00", "open": "10:00"}, "Thursday": {"close": "18:00", "open": "10:00"}, "Sunday": {"close": "16:00", "open": "11:00"}, "Saturday": {"close": "18:00", "open": "10:00"}}, "state": "MLN", "longitude": -3.2209794578262, "stars": 3.0, "latitude": 55.942698203499, "attributes": {"Accepts Credit Cards": true, "Parking": {"garage": false, "street": true, "validated": false, "lot": false, "valet": false}}, "open": true, "categories": ["Local Services", "Electronics", "Computers", "Shopping", "IT Services & Computer Repair"]}, {"city": "Dalkeith", "review_count": 4, "name": "National Mining Museum", "neighborhoods": [], "type": "business", "business_id": "afw8yiR7IjZZ_22W5T3UTw", "full_address": "Lady Victoria Colliery\nNewtongrange\nDalkeith EH22 4QN", "hours": {}, "state": "MLN", "longitude": -3.07852, "stars": 4.5, "latitude": 55.8835, "attributes": {"Good For Kids": true, "Good for Kids": true, "Parking": {"garage": false, "validated": false, "street": false, "lot": false, "valet": false}}, "open": true, "categories": ["Museums", "Arts & Entertainment"]}, {"city": "Edinburgh", "review_count": 24, "name": "Caf\u00e9 Piccante", "neighborhoods": ["New Town"], "type": "business", "business_id": "DC4KDCCrScdImsJoCikkZQ", "full_address": "19 Broughton Street\nNew Town\nEdinburgh EH1 3JU", "hours": {"Monday": {"close": "03:00", "open": "17:00"}, "Tuesday": {"close": "03:00", "open": "17:00"}, "Friday": {"close": "03:00", "open": "17:00"}, "Wednesday": {"close": "03:00", "open": "17:00"}, "Thursday": {"close": "03:00", "open": "17:00"}, "Sunday": {"close": "03:00", "open": "17:00"}, "Saturday": {"close": "03:00", "open": "17:00"}}, "state": "MLN", "longitude": -3.1878616, "stars": 4.0, "latitude": 55.9569467, "attributes": {"Take-out": true, "Accepts Credit Cards": true, "Drive-Thru": false, "Outdoor Seating": false, "Price Range": 1, "Noise Level": "average", "Parking": {"garage": false, "street": false, "validated": false, "lot": false, "valet": false}, "Delivery": true, "Attire": "casual", "Has TV": true, "Good For": {"dessert": false, "latenight": true, "lunch": false, "dinner": false, "breakfast": false, "brunch": false}, "Takes Reservations": false, "Ambience": {"romantic": false, "intimate": false, "classy": false, "hipster": false, "touristy": false, "trendy": false, "upscale": false, "casual": false}, "Waiter Service": false, "Wi-Fi": "free", "Good for Kids": true, "Good For Groups": true, "Alcohol": "beer_and_wine"}, "open": true, "categories": ["Fast Food", "Fish & Chips", "Restaurants"]}, {"city": "Edinburgh", "review_count": 4, "name": "Vodafone", "neighborhoods": ["New Town"], "type": "business", "business_id": "Ztm6OYjd_EEZv7M1c29EuQ", "full_address": "24 Princes St\nNew Town\nEdinburgh EH1", "hours": {}, "state": "MLN", "longitude": -3.1911195, "stars": 2.5, "latitude": 55.9529796, "attributes": {"Accepts Credit Cards": true, "Wheelchair Accessible": true}, "open": true, "categories": ["Shopping", "Mobile Phones"]}, {"city": "Edinburgh", "review_count": 5, "name": "Metropolitan Hotel", "neighborhoods": ["New Town"], "type": "business", "business_id": "w118Jv65b7n9pYHgMdoWbA", "full_address": "4-6 Picardy Pl\nNew Town\nEdinburgh EH1 3JT", "hours": {"Monday": {"close": "00:00", "open": "09:00"}}, "state": "MLN", "longitude": -3.1874442, "stars": 3.5, "latitude": 55.9567961, "attributes": {"Price Range": 3}, "open": true, "categories": ["Hotels & Travel", "Event Planning & Services", "Hotels"]}, {"city": "Edinburgh", "review_count": 4, "name": "Broughton Street", "neighborhoods": ["New Town"], "type": "business", "business_id": "L3N9rOWokdAFbJj4FZXoiw", "full_address": "New Town\nEdinburgh EH1", "hours": {}, "state": "MLN", "longitude": -3.1872616, "stars": 4.0, "latitude": 55.9573939, "attributes": {"Good for Kids": true}, "open": true, "categories": ["Local Flavor"]}, {"city": "Edinburgh", "review_count": 28, "name": "Nando's", "neighborhoods": ["Old Town"], "type": "business", "business_id": "VLJia58741I_ZvynNtwJfA", "full_address": "71-73 Lothian Road\nOld Town\nEdinburgh EH3 9AZ", "hours": {"Monday": {"close": "23:00", "open": "11:00"}, "Tuesday": {"close": "23:00", "open": "11:00"}, "Friday": {"close": "23:00", "open": "11:00"}, "Wednesday": {"close": "23:00", "open": "11:00"}, "Thursday": {"close": "23:00", "open": "11:00"}, "Sunday": {"close": "23:00", "open": "12:30"}, "Saturday": {"close": "23:00", "open": "11:00"}}, "state": "MLN", "longitude": -3.2052854965426, "stars": 4.0, "latitude": 55.946835731363, "attributes": {"Take-out": true, "Accepts Credit Cards": true, "Drive-Thru": false, "Outdoor Seating": false, "Caters": true, "Noise Level": "average", "Good For Kids": true, "Parking": {"garage": false, "street": true, "validated": false, "lot": false, "valet": false}, "Good For Groups": true, "Delivery": false, "Attire": "casual", "Has TV": false, "Price Range": 2, "Good For": {"dessert": false, "latenight": false, "lunch": true, "dinner": true, "breakfast": false, "brunch": false}, "Takes Reservations": true, "Ambience": {"romantic": false, "intimate": false, "classy": false, "upscale": false, "touristy": false, "trendy": false, "hipster": false, "casual": true}, "Waiter Service": true, "Wi-Fi": "no", "Good for Kids": true, "Alcohol": "beer_and_wine", "Wheelchair Accessible": true}, "open": true, "categories": ["Portuguese", "Fast Food", "Chicken Wings", "Restaurants"]}, {"city": "Edinburgh", "review_count": 7, "name": "The Pasty Shop", "neighborhoods": ["Old Town"], "type": "business", "business_id": "O2yg5W_vWIlUbnVf61c_NQ", "full_address": "Waverley Rail Station\nOld Town\nEdinburgh EH1", "hours": {}, "state": "MLN", "longitude": -3.1882289, "stars": 3.5, "latitude": 55.9523866, "attributes": {"Waiter Service": false, "Takes Reservations": false, "Good For Groups": true, "Wheelchair Accessible": true}, "open": true, "categories": ["Fast Food", "Restaurants"]}, {"city": "Edinburgh", "review_count": 3, "name": "Informatics Forum", "neighborhoods": ["Newington"], "type": "business", "business_id": "IyQ78mX1JGWx5fM9g8jKeA", "full_address": "10 Crichton Street\nNewington\nEdinburgh EH8 9AB", "hours": {}, "state": "MLN", "longitude": -3.1872345307243, "stars": 4.0, "latitude": 55.945050300254, "attributes": {}, "open": true, "categories": ["Colleges & Universities", "Education"]}, {"city": "Edinburgh", "review_count": 3, "name": "Playfair Library Hall", "neighborhoods": ["Newington", "Old Town"], "type": "business", "business_id": "PuKzSye0DfHpXImVJ6P4JQ", "full_address": "Old College\nSouth Bridge\nNewington\nEdinburgh EH8 9YL", "hours": {}, "state": "MLN", "longitude": -3.18648, "stars": 4.0, "latitude": 55.947509, "attributes": {}, "open": true, "categories": ["Colleges & Universities", "Landmarks & Historical Buildings", "Education", "Public Services & Government"]}, {"city": "Edinburgh", "review_count": 3, "name": "West End", "neighborhoods": ["West End"], "type": "business", "business_id": "Y86aVLhfsrjceaepU0Ak_w", "full_address": "West End\nEdinburgh EH3", "hours": {}, "state": "MLN", "longitude": -3.20932745933533, "stars": 4.0, "latitude": 55.9496083225669, "attributes": {"Good for Kids": true}, "open": true, "categories": ["Local Flavor"]}, {"city": "Edinburgh", "review_count": 3, "name": "Guilty Pleasures", "neighborhoods": ["Old Town"], "type": "business", "business_id": "2x3JGjKJ6vrd5OsGjbu-TA", "full_address": "Assembly at Princes Street Gardens\nOld Town\nEdinburgh EH2 2AN", "hours": {"Monday": {"close": "02:30", "open": "23:30"}, "Tuesday": {"close": "02:30", "open": "23:30"}, "Friday": {"close": "02:30", "open": "23:30"}, "Wednesday": {"close": "02:30", "open": "23:30"}, "Thursday": {"close": "02:30", "open": "23:30"}, "Sunday": {"close": "02:30", "open": "23:30"}, "Saturday": {"close": "02:30", "open": "23:30"}}, "state": "MLN", "longitude": -3.2000527, "stars": 3.5, "latitude": 55.9505156, "attributes": {"Smoking": "outdoor", "Happy Hour": false, "Music": {"dj": true, "live": false, "video": false, "jukebox": false}, "Alcohol": "full_bar", "Outdoor Seating": false}, "open": true, "categories": ["Nightlife", "Dance Clubs"]}, {"city": "Edinburgh", "review_count": 7, "name": "Leith", "neighborhoods": ["Leith"], "type": "business", "business_id": "_jFdCSRPG953snL09JBF-g", "full_address": "Leith\nEdinburgh EH6", "hours": {}, "state": "MLN", "longitude": -3.1733994, "stars": 3.5, "latitude": 55.9786619, "attributes": {"Good for Kids": true}, "open": true, "categories": ["Local Flavor"]}, {"city": "Edinburgh", "review_count": 17, "name": "Kebabish Original", "neighborhoods": ["Haymarket"], "type": "business", "business_id": "Dg6NoAEUutXQaKJumpBDgA", "full_address": "128 Dalry Road\nHaymarket\nEdinburgh EH11 2EZ", "hours": {"Monday": {"close": "23:30", "open": "15:00"}, "Tuesday": {"close": "23:30", "open": "15:00"}, "Friday": {"close": "23:30", "open": "15:00"}, "Wednesday": {"close": "23:30", "open": "15:00"}, "Thursday": {"close": "23:30", "open": "15:00"}, "Sunday": {"close": "23:30", "open": "15:00"}, "Saturday": {"close": "23:30", "open": "15:00"}}, "state": "MLN", "longitude": -3.22182691534431, "stars": 3.5, "latitude": 55.942789, "attributes": {"Take-out": true, "Price Range": 2, "Outdoor Seating": false, "Noise Level": "average", "Parking": {"garage": false, "street": false, "validated": false, "lot": false, "valet": false}, "Good For Groups": true, "Attire": "casual", "Has TV": true, "Good For": {"dessert": false, "latenight": false, "lunch": false, "dinner": false, "breakfast": false, "brunch": false}, "Takes Reservations": true, "Ambience": {"romantic": false, "intimate": false, "classy": false, "hipster": false, "divey": false, "touristy": false, "trendy": false, "upscale": false, "casual": false}, "Waiter Service": true, "Accepts Credit Cards": true, "Good for Kids": true, "Alcohol": "none", "Wheelchair Accessible": true}, "open": true, "categories": ["Turkish", "Fast Food", "Indian", "Restaurants"]}, {"city": "Edinburgh", "review_count": 10, "name": "21212", "neighborhoods": [], "type": "business", "business_id": "jKeorIe_lmk-fBB_NXPs7A", "full_address": "3 Royal Terrace\nEdinburgh EH7 5AB", "hours": {"Tuesday": {"close": "10:00", "open": "12:00"}, "Friday": {"close": "10:00", "open": "12:00"}, "Saturday": {"close": "10:00", "open": "12:00"}, "Thursday": {"close": "10:00", "open": "12:00"}, "Wednesday": {"close": "10:00", "open": "12:00"}}, "state": "MLN", "longitude": -3.1783978, "stars": 5.0, "latitude": 55.9567885, "attributes": {"Take-out": false, "Accepts Credit Cards": true, "Price Range": 3, "Outdoor Seating": false, "Caters": false, "Noise Level": "quiet", "Parking": {"garage": false, "street": false, "lot": false, "valet": false}, "Delivery": false, "Attire": "formal", "Has TV": false, "Good For": {"dessert": false, "latenight": false, "lunch": false, "dinner": false, "breakfast": false, "brunch": false}, "Takes Reservations": true, "Ambience": {"romantic": false, "intimate": false, "classy": false, "hipster": false, "touristy": false, "trendy": false, "upscale": false, "casual": false}, "Waiter Service": true, "Wi-Fi": "no", "Good for Kids": false, "Good For Groups": true, "Alcohol": "full_bar"}, "open": true, "categories": ["Hotels & Travel", "Hotels", "Event Planning & Services", "Local Flavor", "Restaurants"]}, {"city": "Edinburgh", "review_count": 8, "name": "Thai Pad", "neighborhoods": [], "type": "business", "business_id": "Qjl1fyG__EtM7_VsOdB2hA", "full_address": "20 A Leopold Place\nLondon Road\nEdinburgh EH7 5LB", "hours": {"Monday": {"close": "22:00", "open": "17:00"}, "Tuesday": {"close": "22:00", "open": "17:00"}, "Friday": {"close": "22:30", "open": "17:00"}, "Wednesday": {"close": "22:00", "open": "17:00"}, "Thursday": {"close": "22:00", "open": "17:00"}, "Sunday": {"close": "22:00", "open": "17:00"}, "Saturday": {"close": "22:30", "open": "17:00"}}, "state": "MLN", "longitude": -3.1681493, "stars": 3.5, "latitude": 55.9573323, "attributes": {"Take-out": true, "Accepts Credit Cards": true, "Price Range": 2, "Outdoor Seating": true, "Noise Level": "average", "Good For Kids": true, "Parking": {"garage": false, "street": false, "validated": false, "lot": false, "valet": false}, "Good For": {"dessert": false, "latenight": false, "lunch": false, "dinner": false, "breakfast": false, "brunch": false}, "Takes Reservations": true, "Attire": "casual", "Wi-Fi": "free", "Good for Kids": true, "Good For Groups": true, "Alcohol": "beer_and_wine"}, "open": true, "categories": ["Food", "Food Delivery Services", "Thai", "Restaurants"]}, {"city": "Edinburgh", "review_count": 3, "name": "Hannah Zakari", "neighborhoods": ["Old Town"], "type": "business", "business_id": "Y5aCu6jerH28RAwPHV9EzA", "full_address": "43 Candlemaker Row\nOld Town\nEdinburgh EH1 2QB", "hours": {"Monday": {"close": "17:30", "open": "11:00"}, "Tuesday": {"close": "17:30", "open": "11:00"}, "Friday": {"close": "17:30", "open": "11:00"}, "Wednesday": {"close": "17:30", "open": "11:00"}, "Thursday": {"close": "17:30", "open": "11:00"}, "Sunday": {"close": "16:00", "open": "12:00"}, "Saturday": {"close": "17:30", "open": "11:00"}}, "state": "MLN", "longitude": -3.1925185, "stars": 5.0, "latitude": 55.9476685, "attributes": {"Accepts Credit Cards": true, "Wheelchair Accessible": true}, "open": true, "categories": ["Shopping", "Jewelry"]}, {"city": "Edinburgh", "review_count": 6, "name": "Nagoya Original Sushi Restaurant", "neighborhoods": [], "type": "business", "business_id": "-DUcJU9z96v4jI3aLtM8ug", "full_address": "21 Dalziel Place\nEdinburgh EH7 5TP", "hours": {"Monday": {"close": "23:00", "open": "17:00"}, "Tuesday": {"close": "15:00", "open": "12:00"}, "Friday": {"close": "15:00", "open": "12:00"}, "Wednesday": {"close": "15:00", "open": "12:00"}, "Thursday": {"close": "15:00", "open": "12:00"}, "Sunday": {"close": "15:00", "open": "12:00"}, "Saturday": {"close": "15:00", "open": "12:00"}}, "state": "MLN", "longitude": -3.16131591796875, "stars": 4.5, "latitude": 55.9565281246622, "attributes": {"Take-out": true, "Accepts Credit Cards": true, "Price Range": 4, "Alcohol": "beer_and_wine", "Parking": {"garage": false, "validated": false, "street": false, "lot": false, "valet": false}, "Delivery": true, "Outdoor Seating": false, "Takes Reservations": true, "Wi-Fi": "no", "Wheelchair Accessible": false}, "open": true, "categories": ["Sushi Bars", "Japanese", "Restaurants"]}, {"city": "Straiton", "review_count": 5, "name": "Straiton Retail Park", "neighborhoods": [], "type": "business", "business_id": "NmXRANOiBr4WpEhX-VaeQA", "full_address": "Straiton EH20 9QY", "hours": {}, "state": "MLN", "longitude": -3.1628117, "stars": 2.5, "latitude": 55.8866625, "attributes": {"Accepts Credit Cards": true, "Price Range": 2, "Parking": {"garage": false, "street": false, "lot": false, "valet": false}}, "open": true, "categories": ["Shopping Centers", "Shopping"]}, {"city": "Edinburgh", "review_count": 37, "name": "Hotel Chocolat", "neighborhoods": ["New Town"], "type": "business", "business_id": "CpFtg3XTTdhCsDlqmIOaHQ", "full_address": "7A Frederick Street\nNew Town\nEdinburgh EH2 2EY", "hours": {"Monday": {"close": "18:00", "open": "09:00"}, "Tuesday": {"close": "18:00", "open": "09:00"}, "Friday": {"close": "18:00", "open": "09:00"}, "Wednesday": {"close": "18:00", "open": "09:00"}, "Thursday": {"close": "20:00", "open": "09:00"}, "Sunday": {"close": "18:00", "open": "11:00"}, "Saturday": {"close": "18:00", "open": "09:00"}}, "state": "MLN", "longitude": -3.1993057847712, "stars": 4.5, "latitude": 55.951931260111, "attributes": {"Accepts Credit Cards": true, "Price Range": 3, "Outdoor Seating": false, "Wi-Fi": "no", "Parking": {"garage": false, "street": true, "lot": false, "valet": false}}, "open": true, "categories": ["Food", "Specialty Food", "Coffee & Tea", "Chocolatiers & Shops"]}, {"city": "Edinburgh", "review_count": 3, "name": "Annie & Belle", "neighborhoods": [], "type": "business", "business_id": "_q5_vFZXqNZsegvX-wLBeQ", "full_address": "100 Portobello High Street\nEdinburgh EH15 1AL", "hours": {}, "state": "MLN", "longitude": -3.1157249, "stars": 4.5, "latitude": 55.9539589, "attributes": {"Outdoor Seating": false, "Parking": {"garage": false, "street": false, "lot": false, "valet": false}}, "open": false, "categories": ["Cafes", "Restaurants"]}, {"city": "Edinburgh", "review_count": 6, "name": "Malvarosa", "neighborhoods": [], "type": "business", "business_id": "74q6FHSuoPLjl5OdfoTUoQ", "full_address": "262 Portobello High Street\nEdinburgh EH15 2AT", "hours": {"Monday": {"close": "22:00", "open": "12:00"}, "Friday": {"close": "22:00", "open": "12:00"}, "Wednesday": {"close": "22:00", "open": "12:00"}, "Thursday": {"close": "22:00", "open": "12:00"}, "Sunday": {"close": "22:00", "open": "12:30"}, "Saturday": {"close": "22:00", "open": "12:00"}}, "state": "MLN", "longitude": -3.110367, "stars": 4.5, "latitude": 55.9519766, "attributes": {"Take-out": true, "Price Range": 2, "Outdoor Seating": false, "Noise Level": "average", "Parking": {"garage": false, "street": false, "validated": false, "lot": false, "valet": false}, "Good For Groups": true, "Delivery": false, "Attire": "casual", "Has TV": false, "Good For": {"dessert": false, "latenight": false, "lunch": true, "dinner": true, "brunch": false, "breakfast": false}, "Takes Reservations": true, "Ambience": {"romantic": false, "intimate": false, "classy": false, "hipster": false, "divey": false, "touristy": false, "trendy": false, "upscale": false, "casual": false}, "Waiter Service": true, "Accepts Credit Cards": true, "Good for Kids": true, "Alcohol": "full_bar", "Wheelchair Accessible": true}, "open": true, "categories": ["Spanish", "Restaurants"]}, {"city": "Edinburgh", "review_count": 8, "name": "Anthropologie", "neighborhoods": ["New Town"], "type": "business", "business_id": "tKgA2cqi-FmLEXC_Ar1N6Q", "full_address": "39-41 George St\nNew Town\nEdinburgh EH1 1EL", "hours": {"Monday": {"close": "18:00", "open": "10:00"}, "Tuesday": {"close": "18:00", "open": "10:00"}, "Friday": {"close": "18:00", "open": "10:00"}, "Wednesday": {"close": "18:00", "open": "10:00"}, "Thursday": {"close": "19:00", "open": "10:00"}, "Sunday": {"close": "18:00", "open": "11:00"}, "Saturday": {"close": "18:00", "open": "10:00"}}, "state": "MLN", "longitude": -3.19815874099731, "stars": 4.0, "latitude": 55.9535549237432, "attributes": {"Accepts Credit Cards": true, "Price Range": 3, "Parking": {"garage": false, "street": false, "validated": false, "lot": false, "valet": false}}, "open": true, "categories": ["Fashion", "Shopping", "Home Decor", "Home & Garden"]}, {"city": "Edinburgh", "review_count": 3, "name": "Black Box", "neighborhoods": ["Newington", "Old Town"], "type": "business", "business_id": "OeNvgx7D6nJ-07whO2BHLQ", "full_address": "98 West Bow\nGrassmarket\nNewington\nEdinburgh EH1 2HH", "hours": {"Tuesday": {"close": "18:00", "open": "10:00"}, "Friday": {"close": "18:00", "open": "10:00"}, "Wednesday": {"close": "18:00", "open": "10:00"}, "Thursday": {"close": "18:00", "open": "10:00"}, "Sunday": {"close": "16:00", "open": "12:00"}, "Saturday": {"close": "17:00", "open": "10:00"}}, "state": "MLN", "longitude": -3.1866548, "stars": 4.5, "latitude": 55.9486851, "attributes": {"By Appointment Only": false, "Accepts Credit Cards": true, "Price Range": 3}, "open": true, "categories": ["Shopping", "Jewelry"]}, {"city": "Edinburgh", "review_count": 3, "name": "Butternut Squash", "neighborhoods": [], "type": "business", "business_id": "eZMveJQZ4gTgvewOlcUaVg", "full_address": "78 Portobello High Street\nPortobello\nEdinburgh EH15 1AN", "hours": {}, "state": "MLN", "longitude": -3.1165934, "stars": 3.5, "latitude": 55.9543721, "attributes": {"Delivery": false, "Accepts Credit Cards": true, "Caters": true}, "open": false, "categories": ["Cafes", "Restaurants"]}, {"city": "Edinburgh", "review_count": 57, "name": "The Scotch Whisky Experience", "neighborhoods": ["Old Town", "Royal Mile"], "type": "business", "business_id": "b2EmN9-mvKrJz52Y7IA60w", "full_address": "354 Castlehill\nThe Royal Mile Old Town\nOld Town\nEdinburgh EH8 9YL", "hours": {"Monday": {"close": "20:30", "open": "10:00"}, "Tuesday": {"close": "20:30", "open": "10:00"}, "Friday": {"close": "21:00", "open": "10:00"}, "Wednesday": {"close": "20:30", "open": "10:00"}, "Thursday": {"close": "20:30", "open": "10:00"}, "Sunday": {"close": "20:30", "open": "10:00"}, "Saturday": {"close": "21:00", "open": "10:00"}}, "state": "MLN", "longitude": -3.19584610838798, "stars": 3.5, "latitude": 55.9487710317654, "attributes": {"Good for Kids": false, "Price Range": 3}, "open": true, "categories": ["Hotels & Travel", "Tours"]}, {"city": "Musselburgh", "review_count": 4, "name": "Costa Coffee", "neighborhoods": [], "type": "business", "business_id": "APdexpcdRxLpHvm4zfFdSw", "full_address": "134 High Street\nMusselburgh EH21", "hours": {"Monday": {"close": "17:00", "open": "09:00"}, "Tuesday": {"close": "17:00", "open": "09:00"}, "Friday": {"close": "17:00", "open": "09:00"}, "Wednesday": {"close": "17:00", "open": "09:00"}, "Thursday": {"close": "17:00", "open": "10:00"}, "Sunday": {"close": "17:00", "open": "09:00"}, "Saturday": {"close": "00:30", "open": "09:00"}}, "state": "MLN", "longitude": -3.0500877, "stars": 4.0, "latitude": 55.9425044, "attributes": {"Take-out": true, "Wi-Fi": "free", "Price Range": 1}, "open": true, "categories": ["Cafes", "Restaurants"]}, {"city": "Edinburgh", "review_count": 3, "name": "Blackwood Coffee", "neighborhoods": ["Morningside"], "type": "business", "business_id": "PKsKX2jtYRJElrMu7m-54g", "full_address": "235 Morningside Road\nMorningside\nEdinburgh EH10 4QT", "hours": {}, "state": "MLN", "longitude": -3.209073, "stars": 3.0, "latitude": 55.9280445, "attributes": {"Accepts Credit Cards": true, "Outdoor Seating": true, "Price Range": 2}, "open": true, "categories": ["Food", "Coffee & Tea"]}, {"city": "Edinburgh", "review_count": 6, "name": "Pulp Fiction", "neighborhoods": ["Old Town"], "type": "business", "business_id": "LIuqaQ8nW5kLrZifqU__cA", "full_address": "41 - 43 Bread Street\nOld Town\nEdinburgh EH3 9AH", "hours": {"Monday": {"close": "19:00", "open": "11:00"}, "Tuesday": {"close": "19:00", "open": "11:00"}, "Friday": {"close": "19:00", "open": "11:00"}, "Wednesday": {"close": "19:00", "open": "11:00"}, "Thursday": {"close": "19:00", "open": "11:00"}, "Sunday": {"close": "20:00", "open": "12:00"}, "Saturday": {"close": "20:00", "open": "12:00"}}, "state": "MLN", "longitude": -3.2049592, "stars": 3.5, "latitude": 55.9458375, "attributes": {"Price Range": 2, "Accepts Credit Cards": true, "Wheelchair Accessible": true, "Dietary Restrictions": {"dairy-free": false, "gluten-free": false, "vegan": false, "kosher": false, "halal": false, "soy-free": false, "vegetarian": false}, "Parking": {"garage": false, "validated": false, "street": false, "lot": false, "valet": false}}, "open": true, "categories": ["Books, Mags, Music & Video", "Shopping", "Bookstores"]}, {"city": "Musselburgh", "review_count": 6, "name": "The David Macbeth Moir", "neighborhoods": [], "type": "business", "business_id": "rS2iqhVS0U-P-Q6IRq8KoA", "full_address": "Bridge Street\nMusselburgh EH21 6AG", "hours": {}, "state": "MLN", "longitude": -3.0565439, "stars": 3.5, "latitude": 55.943159, "attributes": {"Alcohol": "full_bar", "Good For Dancing": false, "Noise Level": "average", "Parking": {"garage": false, "street": false, "lot": false, "valet": false}, "Smoking": "no", "Music": {}, "Outdoor Seating": false, "Coat Check": false, "Ambience": {"romantic": false, "intimate": false, "classy": false, "upscale": false, "touristy": false, "trendy": false, "hipster": false, "casual": true}, "Has TV": true, "Accepts Credit Cards": true, "Good For Groups": true, "Price Range": 2}, "open": true, "categories": ["Pubs", "Bars", "Nightlife"]}, {"city": "Edinburgh", "review_count": 3, "name": "French Press Coffee Company", "neighborhoods": ["New Town"], "type": "business", "business_id": "wRRTh1a4nlrw1pB7UFhIlg", "full_address": "25a Dundas Street\nNew Town\nEdinburgh EH3 6QQ", "hours": {}, "state": "MLN", "longitude": -3.1989762, "stars": 4.0, "latitude": 55.9571194, "attributes": {"Take-out": true, "Accepts Credit Cards": true, "Price Range": 1, "Outdoor Seating": true, "Parking": {"garage": false, "street": false, "lot": false, "valet": false}, "Delivery": false, "Attire": "casual", "Has TV": false, "Good For": {"dessert": false, "latenight": false, "lunch": false, "dinner": false, "breakfast": false, "brunch": false}, "Takes Reservations": false, "Ambience": {"romantic": false, "intimate": false, "classy": false, "hipster": false, "divey": false, "touristy": false, "trendy": false, "upscale": false, "casual": false}, "Wi-Fi": "free", "Good for Kids": true, "Good For Groups": false, "Alcohol": "none"}, "open": true, "categories": ["Cafes", "Restaurants"]}, {"city": "Edinburgh", "review_count": 3, "name": "Esso", "neighborhoods": ["Cannonmills"], "type": "business", "business_id": "-X128ZdT1oEka2AYsFN_KA", "full_address": "23 Canonmills\nCannonmills\nEdinburgh EH3 5HA", "hours": {}, "state": "MLN", "longitude": -3.19843187196145, "stars": 3.0, "latitude": 55.9624121259208, "attributes": {"Price Range": 2}, "open": true, "categories": ["Automotive", "Gas & Service Stations"]}, {"city": "Edinburgh", "review_count": 5, "name": "Origano", "neighborhoods": ["Leith"], "type": "business", "business_id": "Tu7-YRjQRl9xOU5IFw8rXA", "full_address": "277 Leith Walk\nLeith\nEdinburgh EH6 8PD", "hours": {"Monday": {"close": "22:00", "open": "17:00"}, "Tuesday": {"close": "22:00", "open": "17:00"}, "Friday": {"close": "22:30", "open": "12:30"}, "Wednesday": {"close": "22:00", "open": "17:00"}, "Thursday": {"close": "22:00", "open": "17:00"}, "Sunday": {"close": "22:00", "open": "13:00"}, "Saturday": {"close": "22:30", "open": "12:30"}}, "state": "MLN", "longitude": -3.1758729, "stars": 4.0, "latitude": 55.9654909, "attributes": {"Take-out": true, "Outdoor Seating": false, "Noise Level": "average", "Takes Reservations": true, "Ambience": {"romantic": false, "intimate": false, "classy": false, "hipster": false, "touristy": false, "trendy": false, "upscale": false, "casual": false}, "Has TV": false, "Good For": {"dessert": false, "latenight": false, "lunch": false, "dinner": false, "breakfast": false, "brunch": false}, "Parking": {"garage": false, "street": false, "lot": false, "valet": false}, "Attire": "casual", "Waiter Service": true, "Accepts Credit Cards": true, "Good For Groups": true, "Price Range": 2}, "open": true, "categories": ["Italian", "Pizza", "Restaurants"]}, {"city": "Midlothian", "review_count": 4, "name": "The Melville Inn", "neighborhoods": [], "type": "business", "business_id": "Ok0w4wOb_hkA3Gwd7c7HTg", "full_address": "Melville Nursery\nLasswade Midlothian\nMidlothian EH18 1AR", "hours": {}, "state": "MLN", "longitude": -3.09630990028381, "stars": 4.5, "latitude": 55.8950114901997, "attributes": {"Alcohol": "full_bar", "Good For Dancing": false, "Noise Level": "average", "Parking": {"garage": false, "street": false, "lot": false, "valet": false}, "Smoking": "outdoor", "Music": {"dj": false, "background_music": true, "karaoke": false, "live": false, "video": false, "jukebox": false}, "Outdoor Seating": true, "Coat Check": false, "Ambience": {"romantic": false, "intimate": false, "classy": false, "hipster": false, "divey": false, "touristy": false, "trendy": false, "upscale": false, "casual": true}, "Has TV": true, "Accepts Credit Cards": true, "Good For Groups": true, "Price Range": 2}, "open": true, "categories": ["Bars", "Nightlife"]}, {"city": "Edinburgh", "review_count": 4, "name": "Club Tropicana", "neighborhoods": ["Old Town"], "type": "business", "business_id": "ygkWj4R67uEgWmWE1NeM1A", "full_address": "23 Lothian Road\nOld Town\nEdinburgh EH1 2DJ", "hours": {"Friday": {"close": "03:00", "open": "20:00"}, "Saturday": {"close": "03:00", "open": "20:00"}}, "state": "MLN", "longitude": -3.2062258, "stars": 1.5, "latitude": 55.9483568, "attributes": {"Alcohol": "full_bar", "Good For Dancing": true, "Noise Level": "very_loud", "Parking": {"garage": false, "street": false, "lot": false, "valet": false}, "Dogs Allowed": false, "Happy Hour": false, "Music": {"dj": true, "background_music": false, "karaoke": false, "live": false, "video": false, "jukebox": false}, "Outdoor Seating": false, "Coat Check": true, "Smoking": "outdoor", "Accepts Credit Cards": false, "Wheelchair Accessible": false, "Good For Groups": false, "Price Range": 1}, "open": true, "categories": ["Bars", "Nightlife", "Dance Clubs"]}, {"city": "Edinburgh", "review_count": 8, "name": "Frisky Frozen Yogurt", "neighborhoods": ["Old Town"], "type": "business", "business_id": "qvXClfE7fsP8B1P1t1KW4A", "full_address": "37 Lothian Road\nOld Town\nEdinburgh EH1 2DJ", "hours": {"Monday": {"close": "23:00", "open": "12:00"}, "Tuesday": {"close": "23:00", "open": "12:00"}, "Friday": {"close": "23:00", "open": "12:00"}, "Wednesday": {"close": "23:00", "open": "12:00"}, "Thursday": {"close": "23:00", "open": "12:00"}, "Sunday": {"close": "23:00", "open": "12:00"}, "Saturday": {"close": "23:00", "open": "12:00"}}, "state": "MLN", "longitude": -3.2059115, "stars": 3.5, "latitude": 55.9478616, "attributes": {"Price Range": 2, "Accepts Credit Cards": true, "Wheelchair Accessible": true, "Wi-Fi": "free", "Parking": {"garage": false, "street": true, "lot": false, "valet": false}}, "open": true, "categories": ["Food", "Ice Cream & Frozen Yogurt"]}, {"city": "Edinburgh", "review_count": 3, "name": "Sugarhouse Sandwiches", "neighborhoods": ["Old Town", "Royal Mile"], "type": "business", "business_id": "LR0QqOWzkFst1uCjlTAWVA", "full_address": "158 Canongate\nOld Town\nEdinburgh EH8 8DD", "hours": {}, "state": "MLN", "longitude": -3.1786568, "stars": 4.5, "latitude": 55.9515398, "attributes": {"Take-out": true, "Good For": {"dessert": false, "latenight": false, "lunch": false, "dinner": false, "breakfast": false, "brunch": false}, "Noise Level": "quiet", "Parking": {"garage": false, "street": false, "lot": false, "valet": false}, "Has TV": false, "Outdoor Seating": true, "Attire": "casual", "Ambience": {"romantic": false, "intimate": false, "classy": false, "hipster": false, "touristy": false, "trendy": false, "upscale": false, "casual": false}, "Waiter Service": true, "Accepts Credit Cards": true, "Good for Kids": true, "Price Range": 1}, "open": true, "categories": ["Sandwiches", "Restaurants"]}, {"city": "Edinburgh", "review_count": 23, "name": "Jamie's Italian", "neighborhoods": ["New Town"], "type": "business", "business_id": "KvIVxlyFoOtSRuLeAjblXg", "full_address": "The Assembly Rooms\n54 George Street\nNew Town\nEdinburgh EH2 2LR", "hours": {"Monday": {"close": "23:00", "open": "12:00"}, "Tuesday": {"close": "23:00", "open": "12:00"}, "Friday": {"close": "23:00", "open": "12:00"}, "Wednesday": {"close": "23:00", "open": "12:00"}, "Thursday": {"close": "23:00", "open": "12:00"}, "Sunday": {"close": "22:30", "open": "12:00"}, "Saturday": {"close": "23:00", "open": "12:00"}}, "state": "MLN", "longitude": -3.1987398, "stars": 3.5, "latitude": 55.9531151, "attributes": {"Take-out": false, "Price Range": 2, "Outdoor Seating": false, "Caters": true, "Noise Level": "average", "Good For Kids": true, "Parking": {"garage": false, "street": true, "validated": false, "lot": false, "valet": false}, "Good For Groups": true, "Delivery": false, "Attire": "casual", "Has TV": false, "Good For": {"dessert": false, "latenight": false, "lunch": false, "dinner": true, "brunch": false, "breakfast": false}, "Takes Reservations": true, "Ambience": {"romantic": false, "intimate": false, "classy": false, "hipster": false, "divey": false, "touristy": false, "trendy": true, "upscale": false, "casual": false}, "Waiter Service": true, "Accepts Credit Cards": true, "Good for Kids": true, "Alcohol": "full_bar", "Wheelchair Accessible": true}, "open": true, "categories": ["Restaurants", "Italian"]}, {"city": "Edinburgh", "review_count": 3, "name": "Edinburgh Park -The Gyle", "neighborhoods": [], "type": "business", "business_id": "lXpOMMVeNqAH1OSiuGumng", "full_address": "1 Lochside Court\nEdinburgh Park\nEdinburgh EH12 9FX", "hours": {}, "state": "MLN", "longitude": -3.307785987854, "stars": 3.5, "latitude": 55.9278737868805, "attributes": {"Accepts Credit Cards": true, "Wi-Fi": "free", "Price Range": 2}, "open": true, "categories": ["Hotels & Travel", "Event Planning & Services", "Hotels"]}, {"city": "Edinburgh", "review_count": 5, "name": "Patisserie Valerie", "neighborhoods": ["New Town"], "type": "business", "business_id": "hUADFg3xXoy9KY-R-mnNkQ", "full_address": "158-162 Rose Street\nNew Town\nEdinburgh EH2", "hours": {"Monday": {"close": "20:00", "open": "08:00"}, "Tuesday": {"close": "20:00", "open": "08:00"}, "Friday": {"close": "20:00", "open": "08:00"}, "Wednesday": {"close": "20:00", "open": "08:00"}, "Thursday": {"close": "20:00", "open": "08:00"}, "Sunday": {"close": "20:00", "open": "08:00"}, "Saturday": {"close": "20:00", "open": "08:00"}}, "state": "MLN", "longitude": -3.20253610610962, "stars": 3.0, "latitude": 55.9519270745907, "attributes": {"Accepts Credit Cards": true, "Wi-Fi": "free", "Price Range": 2}, "open": true, "categories": ["Bakeries", "Food", "Tea Rooms"]}, {"city": "Edinburgh", "review_count": 3, "name": "Travelodge Hotel", "neighborhoods": ["New Town"], "type": "business", "business_id": "mCOAf4eHG7aaDFTLVr--4Q", "full_address": "Edinburgh Central Rose Street\n37-43 Rose Street\nNew Town\nEdinburgh EH2 2NH", "hours": {}, "state": "MLN", "longitude": -3.1979498, "stars": 2.0, "latitude": 55.9526472, "attributes": {"Accepts Credit Cards": true, "Wi-Fi": "paid", "Price Range": 2}, "open": true, "categories": ["Hotels & Travel", "Event Planning & Services", "Hotels"]}, {"city": "Edinburgh", "review_count": 5, "name": "The Marshmallow Lady", "neighborhoods": ["Cannonmills"], "type": "business", "business_id": "ccIghvi9udbH6paHzUF_Wg", "full_address": "14 Rodney Street\nCannonmills\nEdinburgh EH7 4EA", "hours": {"Monday": {"close": "19:00", "open": "12:00"}, "Tuesday": {"close": "19:00", "open": "12:00"}, "Friday": {"close": "18:00", "open": "11:00"}, "Wednesday": {"close": "18:00", "open": "11:00"}, "Thursday": {"close": "18:00", "open": "11:00"}, "Sunday": {"close": "19:00", "open": "12:00"}, "Saturday": {"close": "18:00", "open": "11:00"}}, "state": "MLN", "longitude": -3.1960973160623, "stars": 4.5, "latitude": 55.962403455369, "attributes": {"Attire": "casual", "Price Range": 2, "Accepts Credit Cards": false, "Wi-Fi": "free", "Parking": {"garage": false, "validated": false, "street": false, "lot": false, "valet": false}}, "open": true, "categories": ["Food", "Juice Bars & Smoothies", "Restaurants", "Cafes"]}, {"city": "Edinburgh", "review_count": 11, "name": "The Wee Boulangerie", "neighborhoods": ["Newington"], "type": "business", "business_id": "PeGL1EzeTAw5qNZYwhaaGg", "full_address": "67 Clerk Street\nNewington\nEdinburgh EH8 9JG", "hours": {"Monday": {"close": "18:00", "open": "09:00"}, "Tuesday": {"close": "18:00", "open": "09:00"}, "Friday": {"close": "18:00", "open": "09:00"}, "Wednesday": {"close": "18:00", "open": "09:00"}, "Thursday": {"close": "18:00", "open": "09:00"}, "Sunday": {"close": "15:00", "open": "09:30"}, "Saturday": {"close": "18:00", "open": "09:00"}}, "state": "MLN", "longitude": -3.1818301, "stars": 4.5, "latitude": 55.9417139, "attributes": {"Take-out": true, "Price Range": 1, "Outdoor Seating": false, "Caters": true, "Noise Level": "quiet", "Parking": {"garage": false, "street": false, "lot": false, "valet": false}, "Has TV": false, "Good For": {"dessert": false, "latenight": false, "lunch": false, "dinner": false, "breakfast": false, "brunch": false}, "Attire": "casual", "Ambience": {"romantic": false, "intimate": false, "classy": false, "hipster": false, "touristy": false, "trendy": false, "upscale": false, "casual": false}, "Takes Reservations": false, "Accepts Credit Cards": true, "Good for Kids": true, "Alcohol": "none"}, "open": true, "categories": ["Bakeries", "Food", "French", "Restaurants"]}, {"city": "Edinburgh", "review_count": 3, "name": "The Spiegel Garden", "neighborhoods": ["New Town"], "type": "business", "business_id": "zJa8zGBZDR7DhMYba1OPww", "full_address": "54 George Street\nNew Town\nEdinburgh EH2 2LR", "hours": {}, "state": "MLN", "longitude": -3.1987398, "stars": 2.5, "latitude": 55.9531151, "attributes": {"Alcohol": "full_bar", "Good For Dancing": false, "Noise Level": "very_loud", "Parking": {"garage": false, "street": false, "lot": false, "valet": false}, "Smoking": "yes", "Happy Hour": false, "Has TV": false, "Outdoor Seating": true, "Coat Check": false, "Ambience": {"romantic": false, "intimate": false, "classy": false, "hipster": false, "touristy": false, "trendy": false, "upscale": false, "casual": false}, "Music": {"dj": false, "background_music": false, "karaoke": false, "live": true, "video": false, "jukebox": false}, "Accepts Credit Cards": true, "Good For Groups": true, "Price Range": 3}, "open": true, "categories": ["Bars", "Nightlife"]}, {"city": "Edinburgh", "review_count": 4, "name": "Cafe Marmalade", "neighborhoods": ["Leith"], "type": "business", "business_id": "cBCi1bNWhcHMY4Bo8SbzAQ", "full_address": "23 Bernard Street\nLeith\nEdinburgh EH6 6PW", "hours": {}, "state": "MLN", "longitude": -3.1674969, "stars": 4.5, "latitude": 55.9755134, "attributes": {"Take-out": true, "Price Range": 1, "Outdoor Seating": true, "Caters": true, "Noise Level": "quiet", "Attire": "casual", "Delivery": true, "Good For": {"dessert": false, "latenight": false, "lunch": false, "dinner": false, "breakfast": false, "brunch": false}, "Parking": {"garage": false, "street": false, "lot": false, "valet": false}, "Ambience": {"romantic": false, "intimate": false, "classy": false, "hipster": false, "touristy": false, "trendy": false, "upscale": false, "casual": false}, "Waiter Service": true, "Accepts Credit Cards": true, "Good for Kids": true, "Alcohol": "none"}, "open": true, "categories": ["Cafes", "Restaurants"]}, {"city": "Edinburgh", "review_count": 20, "name": "The Blackbird", "neighborhoods": ["The Meadows", "Bruntsfield"], "type": "business", "business_id": "95RAoc1wnt2rs28Wfs6_1Q", "full_address": "37-39 Leven Street\nThe Meadows\nEdinburgh EH3 9LH", "hours": {"Monday": {"close": "01:00", "open": "10:00"}, "Tuesday": {"close": "01:00", "open": "10:00"}, "Friday": {"close": "01:00", "open": "10:00"}, "Wednesday": {"close": "01:00", "open": "10:00"}, "Thursday": {"close": "01:00", "open": "10:00"}, "Sunday": {"close": "01:00", "open": "10:00"}, "Saturday": {"close": "01:00", "open": "10:00"}}, "state": "MLN", "longitude": -3.203845, "stars": 3.5, "latitude": 55.941245, "attributes": {"Take-out": false, "Accepts Credit Cards": true, "Price Range": 2, "Outdoor Seating": true, "Good For Dancing": false, "Noise Level": "quiet", "Takes Reservations": true, "Music": {"dj": false, "background_music": true, "karaoke": false, "live": false, "video": false, "jukebox": false}, "Attire": "casual", "Delivery": false, "Waiter Service": true, "Parking": {"garage": false, "street": false, "lot": false, "valet": false}, "Has TV": true, "Good For": {"dessert": false, "latenight": false, "lunch": false, "dinner": false, "breakfast": false, "brunch": false}, "Coat Check": false, "Ambience": {"romantic": false, "intimate": false, "classy": false, "hipster": false, "touristy": false, "trendy": true, "upscale": false, "casual": false}, "Smoking": "outdoor", "Wi-Fi": "free", "Good for Kids": false, "Good For Groups": true, "Alcohol": "full_bar"}, "open": true, "categories": ["Pubs", "Bars", "Restaurants", "Nightlife", "Gastropubs"]}, {"city": "Edinburgh", "review_count": 4, "name": "Caledonian Baskpackers Hostel", "neighborhoods": ["West End", "New Town"], "type": "business", "business_id": "FplSgZWFugMELQlvkfBQjg", "full_address": "3 Queensferry Street\nWest End\nEdinburgh EH2 4PA", "hours": {}, "state": "MLN", "longitude": -3.2087967, "stars": 4.5, "latitude": 55.9503465, "attributes": {}, "open": true, "categories": ["Hotels & Travel", "Hostels"]}, {"city": "Edinburgh", "review_count": 3, "name": "Hernandez & Co", "neighborhoods": ["New Town"], "type": "business", "business_id": "GUtNAaTZr5oRdHXx-AwT2w", "full_address": "31a Queensferry Street\nNew Town\nEdinburgh EH2 4QS", "hours": {"Thursday": {"close": "15:00", "open": "08:00"}, "Tuesday": {"close": "15:00", "open": "08:00"}, "Friday": {"close": "15:00", "open": "08:00"}, "Wednesday": {"close": "15:00", "open": "08:00"}, "Monday": {"close": "15:00", "open": "08:00"}}, "state": "MLN", "longitude": -3.2097903, "stars": 5.0, "latitude": 55.9510584, "attributes": {}, "open": true, "categories": ["Spanish", "Sandwiches", "Restaurants"]}, {"city": "Edinburgh", "review_count": 12, "name": "Chaophraya", "neighborhoods": ["New Town"], "type": "business", "business_id": "MvXsT-LOm03BovfpeGoq9w", "full_address": "4th Floor\n33 Castle Street\nNew Town\nEdinburgh EH2 3DN", "hours": {"Monday": {"close": "22:00", "open": "12:00"}, "Tuesday": {"close": "22:00", "open": "12:00"}, "Friday": {"close": "22:00", "open": "12:00"}, "Wednesday": {"close": "22:00", "open": "12:00"}, "Thursday": {"close": "22:00", "open": "12:00"}, "Sunday": {"close": "22:00", "open": "12:00"}, "Saturday": {"close": "22:00", "open": "12:00"}}, "state": "MLN", "longitude": -3.2031237, "stars": 4.5, "latitude": 55.9521955, "attributes": {"Take-out": false, "Accepts Credit Cards": true, "Price Range": 4, "Outdoor Seating": true, "Noise Level": "average", "Parking": {"garage": false, "street": true, "lot": false, "valet": false}, "Good For Groups": true, "Delivery": false, "Dogs Allowed": false, "Attire": "casual", "Good For": {"dessert": false, "latenight": false, "lunch": false, "dinner": true, "breakfast": false, "brunch": false}, "Takes Reservations": true, "Ambience": {"romantic": false, "intimate": false, "classy": false, "hipster": false, "divey": false, "touristy": false, "trendy": true, "upscale": false, "casual": false}, "Waiter Service": true, "Wi-Fi": "free", "Good for Kids": true, "Alcohol": "full_bar", "Wheelchair Accessible": true}, "open": true, "categories": ["Thai", "Restaurants"]}, {"city": "Edinburgh", "review_count": 3, "name": "Little Vietnam", "neighborhoods": ["West End", "Haymarket"], "type": "business", "business_id": "I7qsERKHVqW0jdfeHMmCCw", "full_address": "79 Dalry Road\nWest End\nEdinburgh EH11 2AA", "hours": {"Monday": {"close": "14:30", "open": "12:00"}, "Tuesday": {"close": "14:30", "open": "12:00"}, "Friday": {"close": "14:30", "open": "12:00"}, "Wednesday": {"close": "14:30", "open": "12:00"}, "Thursday": {"close": "14:30", "open": "12:00"}, "Sunday": {"close": "22:30", "open": "12:00"}, "Saturday": {"close": "22:30", "open": "12:00"}}, "state": "MLN", "longitude": -3.2184679, "stars": 4.0, "latitude": 55.9438473, "attributes": {"Take-out": true, "Accepts Credit Cards": true, "Price Range": 1, "Outdoor Seating": false, "Noise Level": "average", "Attire": "casual", "Delivery": true, "Has TV": false, "Good For": {"dessert": false, "latenight": false, "lunch": false, "dinner": false, "breakfast": false, "brunch": false}, "Parking": {"garage": false, "street": false, "validated": false, "lot": false, "valet": false}, "Ambience": {"romantic": false, "intimate": false, "classy": false, "hipster": false, "touristy": false, "trendy": false, "upscale": false, "casual": false}, "Waiter Service": true, "Wi-Fi": "no", "Good for Kids": true, "Alcohol": "none"}, "open": true, "categories": ["Vietnamese", "Restaurants"]}, {"city": "Edinburgh", "review_count": 12, "name": "The Pantry", "neighborhoods": ["Stockbridge", "New Town"], "type": "business", "business_id": "TFAlHUtChUWGVvloeP6h6Q", "full_address": "1-2 NW Circus Place\nStockbridge\nEdinburgh EH3 6ST", "hours": {"Monday": {"close": "18:00", "open": "10:00"}, "Tuesday": {"close": "18:00", "open": "10:00"}, "Friday": {"close": "22:00", "open": "10:00"}, "Wednesday": {"close": "22:00", "open": "10:00"}, "Thursday": {"close": "22:00", "open": "10:00"}, "Sunday": {"close": "22:00", "open": "10:00"}, "Saturday": {"close": "22:00", "open": "10:00"}}, "state": "MLN", "longitude": -3.2056081, "stars": 3.5, "latitude": 55.9572378, "attributes": {"Accepts Credit Cards": true, "Outdoor Seating": true, "Noise Level": "average", "Takes Reservations": true, "Ambience": {"romantic": false, "intimate": false, "classy": false, "hipster": false, "touristy": false, "trendy": false, "upscale": false, "casual": true}, "Has TV": false, "Good For": {"dessert": false, "latenight": false, "lunch": false, "dinner": false, "brunch": true, "breakfast": false}, "Parking": {"garage": false, "street": false, "lot": false, "valet": false}, "Attire": "casual", "Waiter Service": true, "Wi-Fi": "free", "Good for Kids": true, "Good For Groups": true, "Price Range": 2}, "open": true, "categories": ["Scottish", "British", "Restaurants"]}, {"city": "Edinburgh", "review_count": 5, "name": "Bellevue Bar", "neighborhoods": ["New Town"], "type": "business", "business_id": "JxubR9wJfrCUCY-fuW1-Zg", "full_address": "49-51 London Street\nBroughton\nNew Town\nEdinburgh EH3", "hours": {}, "state": "MLN", "longitude": -3.19117458363505, "stars": 4.0, "latitude": 55.9591380543808, "attributes": {"Alcohol": "full_bar", "Good For Dancing": false, "Noise Level": "average", "Has TV": false, "Outdoor Seating": false, "Accepts Credit Cards": true, "Good For Groups": true, "Price Range": 2}, "open": true, "categories": ["Pubs", "Bars", "Nightlife"]}, {"city": "Midlothian", "review_count": 4, "name": "Dobbies Garden World", "neighborhoods": [], "type": "business", "business_id": "-_pcphszl0i2rWJd20gWIA", "full_address": "Melville Nursery\nMidlothian EH18 1AZ", "hours": {}, "state": "MLN", "longitude": -3.10034, "stars": 4.0, "latitude": 55.89679, "attributes": {"Accepts Credit Cards": true, "Price Range": 4, "Parking": {"garage": false, "street": false, "validated": false, "lot": false, "valet": false}}, "open": true, "categories": ["Shopping", "Nurseries & Gardening", "Home & Garden"]}, {"city": "Edinburgh", "review_count": 3, "name": "The Skylark", "neighborhoods": [], "type": "business", "business_id": "3TB9OQ2K9gIuJD5oe0H1mQ", "full_address": "241/243 Portobello High Street\nEdinburgh EH15 2AW", "hours": {}, "state": "MLN", "longitude": -3.1100189, "stars": 2.5, "latitude": 55.9517784, "attributes": {"Take-out": true, "Good For": {"dessert": false, "latenight": false, "lunch": false, "dinner": false, "breakfast": false, "brunch": false}, "Noise Level": "quiet", "Parking": {"garage": false, "street": false, "lot": false, "valet": false}, "Outdoor Seating": false, "Attire": "casual", "Ambience": {"romantic": false, "intimate": false, "classy": false, "hipster": false, "touristy": false, "trendy": false, "upscale": false, "casual": false}, "Waiter Service": true, "Price Range": 2, "Good for Kids": true, "Good For Groups": true, "Alcohol": "full_bar"}, "open": true, "categories": ["Gastropubs", "Restaurants"]}, {"city": "Edinburgh", "review_count": 40, "name": "The Blue Bear", "neighborhoods": ["Stockbridge", "Cannonmills"], "type": "business", "business_id": "qy8EKF7IXGe65_wglj4AgQ", "full_address": "9 Brandon Terrace\nStockbridge\nEdinburgh EH3 5EA", "hours": {"Monday": {"close": "18:00", "open": "07:30"}, "Tuesday": {"close": "18:00", "open": "07:30"}, "Friday": {"close": "18:00", "open": "07:30"}, "Wednesday": {"close": "18:00", "open": "07:30"}, "Thursday": {"close": "18:00", "open": "07:30"}, "Sunday": {"close": "18:00", "open": "09:00"}, "Saturday": {"close": "18:00", "open": "08:30"}}, "state": "MLN", "longitude": -3.2001002, "stars": 4.5, "latitude": 55.9622223, "attributes": {"Alcohol": "full_bar", "Noise Level": "average", "Has TV": false, "Attire": "casual", "Ambience": {"romantic": false, "intimate": false, "classy": false, "hipster": false, "divey": false, "touristy": false, "trendy": false, "upscale": false, "casual": true}, "Good for Kids": true, "Price Range": 1, "Good For Dancing": false, "Delivery": false, "Dogs Allowed": true, "Coat Check": false, "Smoking": "outdoor", "Accepts Credit Cards": true, "Take-out": true, "Happy Hour": false, "Outdoor Seating": true, "Takes Reservations": true, "Waiter Service": true, "Wi-Fi": "free", "Caters": true, "Good For": {"dessert": false, "latenight": false, "lunch": false, "dinner": false, "breakfast": false, "brunch": true}, "Parking": {"garage": false, "street": true, "validated": false, "lot": false, "valet": false}, "Music": {"dj": false, "background_music": true, "jukebox": false, "live": false, "video": false, "karaoke": false}, "Good For Groups": true}, "open": true, "categories": ["Breakfast & Brunch", "Bars", "Cafes", "Nightlife", "Restaurants"]}, {"city": "Edinburgh", "review_count": 4, "name": "Orb Cafe", "neighborhoods": ["West End"], "type": "business", "business_id": "ZbO0F9iNfBys64GGK0cssw", "full_address": "246 Morrison Street\nWest End\nEdinburgh EH3 8DT", "hours": {}, "state": "MLN", "longitude": -3.2147165, "stars": 4.5, "latitude": 55.9462637, "attributes": {}, "open": false, "categories": ["Cafes", "Restaurants"]}, {"city": "Edinburgh", "review_count": 7, "name": "The Bonnington", "neighborhoods": ["Leith"], "type": "business", "business_id": "8D33vGfjIOYBFfMzkFSxzw", "full_address": "284 Bonnington Road\nLeith\nEdinburgh EH6 5BE", "hours": {"Monday": {"close": "00:00", "open": "11:00"}, "Tuesday": {"close": "00:00", "open": "11:00"}, "Friday": {"close": "01:00", "open": "11:00"}, "Wednesday": {"close": "00:00", "open": "11:00"}, "Thursday": {"close": "00:00", "open": "11:00"}, "Sunday": {"close": "00:00", "open": "11:00"}, "Saturday": {"close": "01:00", "open": "11:00"}}, "state": "MLN", "longitude": -3.1845785, "stars": 3.0, "latitude": 55.9690847, "attributes": {"Alcohol": "full_bar", "Noise Level": "average", "Music": {}, "Attire": "casual", "Ambience": {"romantic": false, "intimate": false, "classy": false, "hipster": false, "touristy": false, "trendy": false, "upscale": false, "casual": false}, "Good for Kids": true, "Price Range": 2, "Good For Dancing": false, "Delivery": false, "Coat Check": false, "Smoking": "outdoor", "Accepts Credit Cards": true, "Take-out": false, "Happy Hour": false, "Outdoor Seating": false, "Takes Reservations": true, "Waiter Service": true, "Wi-Fi": "free", "Caters": false, "Good For": {"dessert": false, "latenight": false, "lunch": false, "dinner": false, "breakfast": false, "brunch": false}, "Parking": {"garage": false, "street": false, "lot": false, "valet": false}, "Has TV": true, "Good For Groups": true}, "open": true, "categories": ["Pubs", "Bars", "Scottish", "Nightlife", "Restaurants"]}, {"city": "Edinburgh", "review_count": 10, "name": "Angels Share Bar & Hotel", "neighborhoods": ["New Town"], "type": "business", "business_id": "KOc8j0fHB1YHQCj43IMODA", "full_address": "7 - 11 Hope Street\nNew Town\nEdinburgh EH2 4EL", "hours": {}, "state": "MLN", "longitude": -3.2078899, "stars": 4.0, "latitude": 55.9506471, "attributes": {"Take-out": false, "Alcohol": "full_bar", "Attire": "casual", "Delivery": false, "Has TV": false, "Outdoor Seating": true, "Takes Reservations": true, "Ambience": {"romantic": false, "intimate": false, "classy": false, "hipster": false, "touristy": false, "trendy": false, "upscale": false, "casual": false}, "Accepts Credit Cards": true, "Good for Kids": false, "Good For Groups": true, "Price Range": 2}, "open": true, "categories": ["Bars", "Brasseries", "Cocktail Bars", "Event Planning & Services", "Nightlife", "Hotels & Travel", "Hotels", "Restaurants"]}, {"city": "Edinburgh", "review_count": 3, "name": "Smith's Deli", "neighborhoods": ["Marchmont"], "type": "business", "business_id": "q10Lok3-M66eM67IV01m5g", "full_address": "65 Mayfield Road\nMarchmont\nEdinburgh EH9 3AA", "hours": {"Monday": {"close": "16:00", "open": "07:00"}, "Tuesday": {"close": "16:00", "open": "07:00"}, "Friday": {"close": "16:00", "open": "07:00"}, "Wednesday": {"close": "16:00", "open": "07:00"}, "Thursday": {"close": "16:00", "open": "07:00"}, "Sunday": {"close": "16:00", "open": "11:00"}, "Saturday": {"close": "16:00", "open": "09:00"}}, "state": "MLN", "longitude": -3.1759764, "stars": 4.5, "latitude": 55.9303363, "attributes": {"Take-out": true, "Good For": {"dessert": false, "latenight": false, "lunch": false, "dinner": false, "breakfast": false, "brunch": false}, "Noise Level": "average", "Attire": "casual", "Has TV": false, "Outdoor Seating": true, "Takes Reservations": false, "Waiter Service": false, "Good for Kids": true, "Good For Groups": false, "Price Range": 1}, "open": true, "categories": ["Delis", "Restaurants"]}, {"city": "Edinburgh", "review_count": 3, "name": "Bonnington Brunch", "neighborhoods": ["Leith"], "type": "business", "business_id": "NWYSMwJWPhOhIp8O3VkszQ", "full_address": "280 Bonnington Road\nLeith\nEdinburgh EH6 5BE", "hours": {"Monday": {"close": "14:30", "open": "07:00"}, "Tuesday": {"close": "14:30", "open": "07:00"}, "Friday": {"close": "14:30", "open": "07:00"}, "Wednesday": {"close": "14:30", "open": "07:00"}, "Thursday": {"close": "14:30", "open": "07:00"}, "Sunday": {"close": "14:00", "open": "10:00"}, "Saturday": {"close": "14:00", "open": "08:00"}}, "state": "MLN", "longitude": -3.1844272, "stars": 4.5, "latitude": 55.9690918, "attributes": {"Accepts Credit Cards": true, "Good for Kids": true, "Good For Groups": false}, "open": true, "categories": ["Breakfast & Brunch", "Restaurants"]}, {"city": "Edinburgh", "review_count": 12, "name": "Rosslyn Chapel", "neighborhoods": [], "type": "business", "business_id": "1W2JM11f09anyR2D9cis3A", "full_address": "Roslin\nEdinburgh EH25 9PU", "hours": {}, "state": "MLN", "longitude": -3.1591202, "stars": 4.5, "latitude": 55.8561464, "attributes": {"Parking": {"garage": false, "validated": false, "street": false, "lot": false, "valet": false}, "Good For Kids": true, "Wheelchair Accessible": true}, "open": true, "categories": ["Landmarks & Historical Buildings", "Public Services & Government"]}, {"city": "Edinburgh", "review_count": 4, "name": "Ashoka", "neighborhoods": ["New Town"], "type": "business", "business_id": "GUffi7bnIY0kG8dHKDLPkg", "full_address": "97 Hanover Street\nNew Town\nEdinburgh EH2 1DJ", "hours": {}, "state": "MLN", "longitude": -3.1975974, "stars": 5.0, "latitude": 55.9543937, "attributes": {"Price Range": 2, "Outdoor Seating": false, "Noise Level": "average", "Takes Reservations": true, "Attire": "casual", "Has TV": false, "Good For": {"dessert": false, "latenight": false, "lunch": false, "dinner": false, "brunch": false, "breakfast": false}, "Parking": {"garage": false, "street": false, "validated": false, "lot": false, "valet": false}, "Ambience": {"romantic": false, "intimate": false, "classy": false, "hipster": false, "divey": false, "touristy": false, "trendy": false, "upscale": false, "casual": false}, "Waiter Service": true, "Accepts Credit Cards": true, "Good for Kids": true, "Good For Groups": true, "Alcohol": "full_bar"}, "open": true, "categories": ["Indian", "Buffets", "Restaurants"]}, {"city": "Loanhead", "review_count": 4, "name": "Frankie & Benny's", "neighborhoods": [], "type": "business", "business_id": "IjsGdTutchuufjvMrX1C1A", "full_address": "Straiton Mains\nStraiton\nLoanhead EH20 9PW", "hours": {"Monday": {"close": "23:00", "open": "11:00"}, "Tuesday": {"close": "23:00", "open": "11:00"}, "Friday": {"close": "23:00", "open": "11:00"}, "Wednesday": {"close": "23:00", "open": "11:00"}, "Thursday": {"close": "23:00", "open": "11:00"}, "Sunday": {"close": "22:30", "open": "11:00"}, "Saturday": {"close": "23:00", "open": "11:00"}}, "state": "MLN", "longitude": -3.167931, "stars": 3.5, "latitude": 55.882085, "attributes": {}, "open": true, "categories": ["Restaurants", "Italian"]}, {"city": "Edinburgh", "review_count": 3, "name": "Shore Deli Co.", "neighborhoods": ["Leith"], "type": "business", "business_id": "uoTkX6kFvuYsvuTb8cSZHQ", "full_address": "52 Shore\nLeith\nEdinburgh EH6 6RA", "hours": {"Thursday": {"close": "15:00", "open": "08:00"}, "Tuesday": {"close": "15:00", "open": "08:00"}, "Friday": {"close": "15:00", "open": "08:00"}, "Wednesday": {"close": "15:00", "open": "08:00"}, "Monday": {"close": "15:00", "open": "08:00"}}, "state": "MLN", "longitude": -3.1702482, "stars": 4.0, "latitude": 55.9756002, "attributes": {"Price Range": 1}, "open": true, "categories": ["Food", "Delicatessen", "Sandwiches", "Restaurants"]}, {"city": "Edinburgh", "review_count": 4, "name": "Growler Beers", "neighborhoods": ["Morningside"], "type": "business", "business_id": "9oELqGrOjEOc3dhT2EZ-DA", "full_address": "229 Morningside Road\nMorningside\nEdinburgh EH10 4QT", "hours": {"Monday": {"close": "21:00", "open": "13:00"}, "Tuesday": {"close": "21:00", "open": "13:00"}, "Friday": {"close": "22:00", "open": "10:00"}, "Wednesday": {"close": "22:00", "open": "10:00"}, "Thursday": {"close": "22:00", "open": "10:00"}, "Sunday": {"close": "21:00", "open": "12:00"}, "Saturday": {"close": "22:00", "open": "10:00"}}, "state": "MLN", "longitude": -3.2091981, "stars": 4.5, "latitude": 55.9278861, "attributes": {"Price Range": 2, "Accepts Credit Cards": true, "Wheelchair Accessible": true, "Parking": {"garage": false, "street": true, "lot": false, "valet": false}}, "open": true, "categories": ["Food", "Beer, Wine & Spirits"]}, {"city": "Lasswade", "review_count": 12, "name": "Dobbies Garden Centre", "neighborhoods": [], "type": "business", "business_id": "Wz0jh01rmePQ7dB86rJu6A", "full_address": "Melville Nursery\nMelville Nurseries\nLasswade EH18 1AZ", "hours": {"Monday": {"close": "19:00", "open": "09:00"}, "Tuesday": {"close": "19:00", "open": "09:30"}, "Friday": {"close": "19:00", "open": "09:00"}, "Wednesday": {"close": "19:00", "open": "09:00"}, "Thursday": {"close": "19:00", "open": "09:00"}, "Sunday": {"close": "19:00", "open": "09:00"}, "Saturday": {"close": "19:00", "open": "09:00"}}, "state": "MLN", "longitude": -3.0996674, "stars": 4.0, "latitude": 55.8954106, "attributes": {"Price Range": 3, "Accepts Credit Cards": true, "Wheelchair Accessible": true, "Parking": {"garage": false, "street": false, "validated": false, "lot": true, "valet": false}}, "open": true, "categories": ["Shopping", "Nurseries & Gardening", "Home & Garden"]}, {"city": "Dalkeith", "review_count": 3, "name": "Beijing Banquet", "neighborhoods": [], "type": "business", "business_id": "0n3jILpQWJfZB9TIeBdPGA", "full_address": "17 Maulsford Avenue\nDalkeith EH22 1PJ", "hours": {"Monday": {"close": "21:30", "open": "12:00"}, "Tuesday": {"close": "21:30", "open": "12:00"}, "Friday": {"close": "22:30", "open": "12:00"}, "Wednesday": {"close": "21:30", "open": "12:00"}, "Thursday": {"close": "21:30", "open": "12:00"}, "Sunday": {"close": "21:30", "open": "12:30"}, "Saturday": {"close": "22:30", "open": "12:00"}}, "state": "MLN", "longitude": -3.1085613, "stars": 4.0, "latitude": 55.9099398, "attributes": {"Take-out": true, "Price Range": 2, "Outdoor Seating": false, "Noise Level": "average", "Parking": {"garage": false, "street": false, "lot": true, "valet": false}, "Good For Groups": true, "Delivery": false, "Dogs Allowed": false, "Attire": "casual", "Has TV": false, "Good For": {"dessert": false, "latenight": false, "lunch": false, "dinner": true, "breakfast": false, "brunch": false}, "Takes Reservations": true, "Ambience": {"romantic": false, "intimate": false, "classy": false, "hipster": false, "touristy": false, "trendy": false, "upscale": false, "casual": false}, "Waiter Service": true, "Accepts Credit Cards": true, "Good for Kids": true, "Alcohol": "full_bar", "Wheelchair Accessible": true}, "open": true, "categories": ["Chinese", "Restaurants"]}, {"city": "Edinburgh", "review_count": 3, "name": "Blue Goose", "neighborhoods": [], "type": "business", "business_id": "SB7FttLQgwfOtVQ63-HezQ", "full_address": "27 Lanark Road\nEdinburgh EH14 1TG", "hours": {}, "state": "MLN", "longitude": -3.2474959641695, "stars": 2.5, "latitude": 55.9231789727292, "attributes": {"Good For Groups": true, "Parking": {"garage": false, "street": false, "lot": false, "valet": false}}, "open": true, "categories": ["Pubs", "Bars", "Nightlife"]}, {"city": "Edinburgh", "review_count": 3, "name": "Ye Olde Inn", "neighborhoods": [], "type": "business", "business_id": "i_827Jm7Aiqp92r04tHvQg", "full_address": "25 Main Street Davidsons Mains\nEdinburgh EH4 5BZ", "hours": {}, "state": "MLN", "longitude": -3.2737166, "stars": 4.5, "latitude": 55.9655226, "attributes": {"Good For Groups": true, "Price Range": 2}, "open": true, "categories": ["Pubs", "Food", "Bars", "Nightlife"]}, {"city": "Bonnyrigg", "review_count": 3, "name": "Black Diamond Vehicle Services", "neighborhoods": [], "type": "business", "business_id": "kQjb7djuKcC8FDFC1kuDPQ", "full_address": "11/3\nButtlerfield industrial estate\nBonnyrigg EH19 3JQ", "hours": {}, "state": "MLN", "longitude": -3.0703066, "stars": 3.5, "latitude": 55.8605363, "attributes": {"Price Range": 1, "Accepts Credit Cards": false, "Wheelchair Accessible": true, "Parking": {"garage": false, "validated": false, "street": false, "lot": false, "valet": false}}, "open": true, "categories": ["Auto Repair", "Automotive"]}, {"city": "Loanhead", "review_count": 4, "name": "Pets At Home", "neighborhoods": [], "type": "business", "business_id": "RbYyfvWAunwm7P9wiXAlgg", "full_address": "Unit B St raiton Mains\nLoanhead EH20 9NA", "hours": {}, "state": "MLN", "longitude": -3.1696611, "stars": 4.5, "latitude": 55.8736591, "attributes": {}, "open": true, "categories": ["Pets", "Pet Stores"]}, {"city": "Edinburgh", "review_count": 3, "name": "St John's Fish Bar & Restaurant", "neighborhoods": [], "type": "business", "business_id": "OJZ1TPKe6RnBihtPutFXUg", "full_address": "259-261 St Johns Road\nEdinburgh EH12 7XD", "hours": {}, "state": "MLN", "longitude": -3.2896086, "stars": 5.0, "latitude": 55.9430391, "attributes": {"Delivery": true, "Take-out": true, "Accepts Credit Cards": true, "Parking": {"garage": false, "street": true, "validated": false, "lot": false, "valet": false}}, "open": true, "categories": ["Fast Food", "Fish & Chips", "Restaurants"]}, {"city": "Dalkeith", "review_count": 4, "name": "The Cavalier", "neighborhoods": [], "type": "business", "business_id": "uQ4yqzIaF-pXwXf_pdLWEg", "full_address": "122 High Street\nDalkeith EH22 1AU", "hours": {}, "state": "MLN", "longitude": -3.068954, "stars": 4.5, "latitude": 55.8946905, "attributes": {"Take-out": true, "Price Range": 3, "Outdoor Seating": false, "Takes Reservations": true, "Good For Groups": true, "Delivery": true, "Good For": {"dessert": false, "latenight": false, "lunch": false, "dinner": false, "breakfast": false, "brunch": false}, "Parking": {"garage": false, "validated": false, "street": false, "lot": false, "valet": false}, "Attire": "casual", "Accepts Credit Cards": true, "Good For Kids": true, "Alcohol": "beer_and_wine", "Wheelchair Accessible": true}, "open": true, "categories": ["Restaurants", "Italian"]}, {"city": "Loanhead", "review_count": 4, "name": "Lothian Gas", "neighborhoods": [], "type": "business", "business_id": "4v9qecCtsAuOcMi14VPEdw", "full_address": "Dryden Glen\nUnit 5\nLoanhead EH20 9NA", "hours": {}, "state": "MLN", "longitude": -3.1699572, "stars": 3.0, "latitude": 55.8740014, "attributes": {"Price Range": 2}, "open": true, "categories": ["Home Services"]}, {"city": "Edinburgh", "review_count": 8, "name": "Juniper", "neighborhoods": ["New Town"], "type": "business", "business_id": "IXeRU0Q4NGfenND44vsTDA", "full_address": "20 Princes Street\nNew Town\nEdinburgh EH2 2AN", "hours": {"Monday": {"close": "23:00", "open": "12:00"}, "Tuesday": {"close": "23:00", "open": "12:00"}, "Friday": {"close": "01:00", "open": "12:00"}, "Wednesday": {"close": "23:00", "open": "12:00"}, "Thursday": {"close": "23:00", "open": "12:00"}, "Sunday": {"close": "01:00", "open": "12:00"}, "Saturday": {"close": "01:00", "open": "12:00"}}, "state": "MLN", "longitude": -3.1908259, "stars": 3.0, "latitude": 55.9531833, "attributes": {"Alcohol": "full_bar", "Good For Dancing": true, "Has TV": false, "Outdoor Seating": false, "Parking": {"garage": false, "street": false, "lot": false, "valet": false}, "Music": {"dj": false, "background_music": true, "jukebox": false, "live": false, "video": false, "karaoke": false}, "Accepts Credit Cards": true, "Good For Groups": true, "Price Range": 2}, "open": true, "categories": ["Wine Bars", "Bars", "Cocktail Bars", "Nightlife"]}, {"city": "Edinburgh", "review_count": 7, "name": "Twenty Princes Street", "neighborhoods": ["New Town"], "type": "business", "business_id": "Wr_Cw6NXBZCcVhZT8-QsAQ", "full_address": "20 Princes Street\nNew Town\nEdinburgh EH2 2AN", "hours": {"Monday": {"close": "22:30", "open": "12:00"}, "Tuesday": {"close": "22:30", "open": "12:00"}, "Friday": {"close": "22:30", "open": "12:00"}, "Wednesday": {"close": "22:30", "open": "12:00"}, "Thursday": {"close": "22:30", "open": "12:00"}, "Sunday": {"close": "22:30", "open": "12:00"}, "Saturday": {"close": "22:30", "open": "12:00"}}, "state": "MLN", "longitude": -3.1908259, "stars": 3.5, "latitude": 55.9531833, "attributes": {"Take-out": false, "Accepts Credit Cards": true, "Price Range": 3, "Outdoor Seating": false, "Caters": true, "Noise Level": "quiet", "Parking": {"garage": false, "street": false, "lot": false, "valet": false}, "Delivery": false, "Attire": "casual", "Has TV": false, "Good For": {"dessert": false, "latenight": false, "lunch": false, "dinner": false, "breakfast": false, "brunch": false}, "Takes Reservations": true, "Ambience": {"romantic": false, "intimate": false, "classy": false, "upscale": false, "touristy": false, "trendy": false, "hipster": false, "casual": false}, "Waiter Service": true, "Wi-Fi": "no", "Alcohol": "full_bar"}, "open": true, "categories": ["Steakhouses", "Scottish", "Restaurants"]}, {"city": "Edinburgh", "review_count": 5, "name": "Oink", "neighborhoods": ["Old Town", "Royal Mile"], "type": "business", "business_id": "w5QLmggiPXwtQ_ycZqii3w", "full_address": "82 Canongate\nOld Town\nEdinburgh EH8 8BZ", "hours": {}, "state": "MLN", "longitude": -3.1768416, "stars": 5.0, "latitude": 55.9520532, "attributes": {"Take-out": true, "Accepts Credit Cards": false, "Drive-Thru": false, "Outdoor Seating": false, "Caters": false, "Noise Level": "average", "Parking": {"garage": false, "street": false, "lot": false, "valet": false}, "Delivery": false, "Attire": "casual", "Has TV": false, "Price Range": 1, "Good For": {"dessert": false, "latenight": false, "lunch": false, "dinner": false, "breakfast": false, "brunch": false}, "Takes Reservations": false, "Ambience": {"romantic": false, "intimate": false, "classy": false, "hipster": false, "touristy": false, "trendy": false, "upscale": false, "casual": false}, "Waiter Service": false, "Wi-Fi": "no", "Good for Kids": true, "Good For Groups": false, "Alcohol": "none"}, "open": true, "categories": ["Fast Food", "Sandwiches", "Restaurants"]}, {"city": "Edinburgh", "review_count": 5, "name": "Harajuku Kitchen", "neighborhoods": ["The Meadows", "Bruntsfield"], "type": "business", "business_id": "SWRVzB-XA86b6z27h9OD9g", "full_address": "10 Gillespie Place\nThe Meadows\nEdinburgh EH10 4HS", "hours": {}, "state": "MLN", "longitude": -3.2039554, "stars": 4.5, "latitude": 55.9405611, "attributes": {"Take-out": true, "Accepts Credit Cards": true, "Price Range": 2, "Outdoor Seating": false, "Noise Level": "quiet", "Parking": {"garage": false, "street": false, "lot": false, "valet": false}, "Delivery": true, "Attire": "casual", "Has TV": false, "Good For": {"dessert": false, "latenight": false, "lunch": false, "dinner": false, "breakfast": false, "brunch": false}, "Takes Reservations": true, "Ambience": {"romantic": false, "intimate": false, "classy": false, "upscale": false, "touristy": false, "trendy": false, "hipster": false, "casual": false}, "Waiter Service": true, "Wi-Fi": "no", "Good for Kids": true, "Alcohol": "none"}, "open": true, "categories": ["Japanese", "Restaurants"]}, {"city": "Edinburgh", "review_count": 10, "name": "Bindi", "neighborhoods": ["Newington"], "type": "business", "business_id": "-uivNvzL-l33iht2QtPFzg", "full_address": "44-45 St Patrick Square\nNewington\nEdinburgh EH8 9ET", "hours": {"Monday": {"close": "22:00", "open": "17:00"}, "Tuesday": {"close": "22:00", "open": "17:00"}, "Friday": {"close": "22:00", "open": "17:00"}, "Wednesday": {"close": "22:00", "open": "17:00"}, "Thursday": {"close": "22:00", "open": "17:00"}, "Sunday": {"close": "14:30", "open": "12:00"}, "Saturday": {"close": "14:30", "open": "12:00"}}, "state": "MLN", "longitude": -3.1842085, "stars": 4.5, "latitude": 55.9434369, "attributes": {"Alcohol": "beer_and_wine", "Caters": true, "Noise Level": "average", "Parking": {"garage": false, "street": true, "validated": false, "lot": false, "valet": false}, "Dogs Allowed": false, "Has TV": false, "Outdoor Seating": true, "Takes Reservations": true, "Waiter Service": true, "Good for Kids": true, "Price Range": 1}, "open": true, "categories": ["Indian", "African", "Restaurants"]}, {"city": "Edinburgh", "review_count": 5, "name": "Rollo", "neighborhoods": ["Stockbridge"], "type": "business", "business_id": "2f1SJghVS6k1eWIN13d6Rg", "full_address": "108 Raeburn Place\nStockbridge\nEdinburgh EH4 1HH", "hours": {"Monday": {"close": "23:00", "open": "12:00"}, "Tuesday": {"close": "23:00", "open": "12:00"}, "Friday": {"close": "01:00", "open": "12:00"}, "Wednesday": {"close": "00:00", "open": "12:00"}, "Thursday": {"close": "00:00", "open": "12:00"}, "Saturday": {"close": "01:00", "open": "12:00"}}, "state": "MLN", "longitude": -3.21432821357099, "stars": 3.5, "latitude": 55.9593246874076, "attributes": {"Take-out": false, "Coat Check": false, "Delivery": false, "Music": {"dj": false, "background_music": false, "jukebox": false, "live": false, "video": false, "karaoke": false}, "Takes Reservations": true, "Accepts Credit Cards": true, "Good for Kids": false, "Good For Groups": false}, "open": true, "categories": ["Modern European", "Wine Bars", "Bars", "Nightlife", "Restaurants"]}, {"city": "Edinburgh", "review_count": 12, "name": "Ting Thai Caravan", "neighborhoods": ["Old Town"], "type": "business", "business_id": "oBed8sv8tgVmn43mUzPiFQ", "full_address": "8-9 Teviot Place\nOld Town\nEdinburgh EH1 2QZ", "hours": {}, "state": "MLN", "longitude": -3.1899895, "stars": 4.0, "latitude": 55.945634, "attributes": {"Take-out": true, "Price Range": 2, "Outdoor Seating": false, "Caters": false, "Noise Level": "average", "Parking": {"garage": false, "street": false, "validated": false, "lot": false, "valet": false}, "Delivery": false, "Attire": "casual", "Has TV": false, "Good For": {"dessert": false, "latenight": false, "lunch": true, "dinner": false, "brunch": false, "breakfast": false}, "Takes Reservations": false, "Ambience": {"romantic": false, "intimate": false, "classy": false, "hipster": false, "divey": false, "touristy": false, "trendy": false, "upscale": false, "casual": false}, "Waiter Service": true, "Accepts Credit Cards": false, "Good for Kids": true, "Good For Groups": true, "Alcohol": "full_bar"}, "open": true, "categories": ["Thai", "Restaurants"]}, {"city": "Edinburgh", "review_count": 5, "name": "Bluebird Cafe", "neighborhoods": ["Cannonmills"], "type": "business", "business_id": "ubT7TtaceBVH0W52fOEC3A", "full_address": "5 Canonmills\nCannonmills\nEdinburgh EH3 5HA", "hours": {}, "state": "MLN", "longitude": -3.1976623, "stars": 4.0, "latitude": 55.9624442, "attributes": {"Waiter Service": true, "Take-out": true, "Good For Groups": false, "Attire": "casual"}, "open": true, "categories": ["Cafes", "Diners", "Restaurants"]}, {"city": "Edinburgh", "review_count": 5, "name": "Mother's", "neighborhoods": ["New Town"], "type": "business", "business_id": "Gj3eDIunoz2jCGKFicyvCw", "full_address": "24 Howe Street\nNew Town\nEdinburgh EH3 6TG", "hours": {}, "state": "MLN", "longitude": -3.20247527680794, "stars": 3.0, "latitude": 55.9563290900058, "attributes": {"Good For Dancing": false, "Happy Hour": false, "Has TV": false, "Outdoor Seating": true, "Music": {"dj": false, "background_music": true, "jukebox": false, "live": false, "video": false, "karaoke": false}, "Accepts Credit Cards": true, "Good For Groups": true, "Price Range": 2}, "open": true, "categories": ["Pubs", "Bars", "Nightlife"]}, {"city": "Edinburgh", "review_count": 12, "name": "Clerk's Bar", "neighborhoods": ["Newington"], "type": "business", "business_id": "Hn_H4WACnwLDoZBBY3lc9Q", "full_address": "74/78 S Clerk Street\nNewington\nEdinburgh EH8 9PT", "hours": {}, "state": "MLN", "longitude": -3.1800832, "stars": 4.0, "latitude": 55.9396812, "attributes": {"Take-out": false, "Caters": true, "Good For Dancing": false, "Noise Level": "loud", "Coat Check": false, "Delivery": false, "Waiter Service": true, "Has TV": true, "Takes Reservations": true, "Attire": "casual", "Smoking": "outdoor", "Accepts Credit Cards": true, "Good for Kids": false, "Good For Groups": true, "Price Range": 2}, "open": true, "categories": ["Pubs", "Bars", "Nightlife", "Barbeque", "Restaurants"]}, {"city": "Midlothian", "review_count": 4, "name": "The Secret Herb Garden", "neighborhoods": [], "type": "business", "business_id": "rO-g_O5cOdMIL3OOtnKMOw", "full_address": "32A Old Pentland Road\nLothianburn\nMidlothian EH10 7EA", "hours": {}, "state": "MLN", "longitude": -3.18597733430842, "stars": 5.0, "latitude": 55.8843816191644, "attributes": {"Accepts Credit Cards": true, "Price Range": 1, "Parking": {"garage": false, "street": false, "validated": false, "lot": true, "valet": false}}, "open": true, "categories": ["Shopping", "Nurseries & Gardening", "Home & Garden"]}, {"city": "Edinburgh", "review_count": 5, "name": "Tugas Amor", "neighborhoods": [], "type": "business", "business_id": "ORI4Yt7lQf18z3x1Rih-Tg", "full_address": "161 Dundee Street\nEdinburgh EH11 1BY", "hours": {"Tuesday": {"close": "23:00", "open": "18:00"}, "Friday": {"close": "23:00", "open": "12:00"}, "Wednesday": {"close": "23:00", "open": "18:00"}, "Thursday": {"close": "23:00", "open": "18:00"}, "Sunday": {"close": "23:00", "open": "12:00"}, "Saturday": {"close": "23:00", "open": "12:00"}}, "state": "MLN", "longitude": -3.2196386, "stars": 4.0, "latitude": 55.9399088, "attributes": {"Noise Level": "average", "Takes Reservations": true, "Has TV": true, "Attire": "casual", "Ambience": {"romantic": false, "intimate": false, "classy": false, "hipster": false, "divey": false, "touristy": false, "trendy": false, "upscale": false, "casual": false}, "Waiter Service": true, "Accepts Credit Cards": true, "Good for Kids": true, "Price Range": 2}, "open": true, "categories": ["Portuguese", "Restaurants"]}, {"city": "Edinburgh", "review_count": 4, "name": "Serrano Manchego", "neighborhoods": ["Leith"], "type": "business", "business_id": "xT1MO7MLMp3jK4XT1LXiKA", "full_address": "297 Leith Walk\nLeith\nEdinburgh EH6 8SA", "hours": {}, "state": "MLN", "longitude": -3.1763666, "stars": 2.5, "latitude": 55.9649864, "attributes": {"Has TV": false, "Good For Groups": true, "Outdoor Seating": false}, "open": true, "categories": ["Tapas Bars", "Restaurants"]}, {"city": "Edinburgh", "review_count": 6, "name": "Burger Meats Bun", "neighborhoods": ["New Town"], "type": "business", "business_id": "EYpqqsJZ3L2EFAPK-NEOFA", "full_address": "45 Broughton St\nNew Town\nEdinburgh EH1 3JU", "hours": {"Tuesday": {"close": "21:30", "open": "12:00"}, "Friday": {"close": "21:30", "open": "12:00"}, "Wednesday": {"close": "21:30", "open": "12:00"}, "Thursday": {"close": "21:30", "open": "12:00"}, "Sunday": {"close": "21:30", "open": "12:00"}, "Saturday": {"close": "21:30", "open": "12:00"}}, "state": "MLN", "longitude": -3.1884128, "stars": 3.5, "latitude": 55.9575363, "attributes": {"Take-out": false, "Accepts Credit Cards": true, "Drive-Thru": false, "Alcohol": "full_bar", "Caters": false, "Noise Level": "average", "Parking": {"garage": false, "street": true, "lot": false, "valet": false}, "Delivery": false, "Dogs Allowed": true, "Waiter Service": true, "Has TV": false, "Price Range": 2, "Outdoor Seating": false, "Takes Reservations": true, "Attire": "casual", "Ambience": {"romantic": false, "intimate": false, "classy": false, "hipster": false, "divey": false, "touristy": false, "trendy": false, "upscale": false, "casual": false}, "Wi-Fi": "free", "Good For Groups": true, "Wheelchair Accessible": false}, "open": true, "categories": ["Burgers", "Restaurants"]}]